{
"type": "FeatureCollection",
"features": [
{ "type": "Feature", "properties": { "monument_id": 1, "monument_name": "Cigarette", "parkprop": "N", "parkname": "unknown", "Location": "The Museum of Modern Art, 11 West 53rd Street" }, "geometry": { "type": "Point", "coordinates": [ -73.9776216, 40.7614327 ] } },
{ "type": "Feature", "properties": { "monument_id": 2, "monument_name": "Philosophy", "parkprop": "O", "parkname": "Bryant Park", "Location": "New York Public Library; 42nd St. and 5th Avenue" }, "geometry": { "type": "Point", "coordinates": [ -73.9822534, 40.753182300000013 ] } },
{ "type": "Feature", "properties": { "monument_id": 3, "monument_name": "Giuseppe Garibaldi", "parkprop": "Y", "parkname": "Washington Square Park", "Location": "unknown" }, "geometry": { "type": "Point", "coordinates": [ -73.997332, 40.7308838 ] } },
{ "type": "Feature", "properties": { "monument_id": 4, "monument_name": "Alexander Hamilton", "parkprop": "N", "parkname": "unknown", "Location": "COUNTY COURT HOUSE, ROOM 315; chambers and centre sts" }, "geometry": null },
{ "type": "Feature", "properties": { "monument_id": 5, "monument_name": "Commerce", "parkprop": "N", "parkname": "unknown", "Location": "Surrogate's Court/Hall of Records, 31 Chambers Street, Elk Street elevation, beside center window in attic" }, "geometry": { "type": "Point", "coordinates": [ -74.0043655, 40.7134361 ] } },
{ "type": "Feature", "properties": { "monument_id": 6, "monument_name": "One Hundred Fifty Seventh St. Subway", "parkprop": "N", "parkname": "unknown", "Location": "157TH ST. SUBWAY; uptown side" }, "geometry": null },
{ "type": "Feature", "properties": { "monument_id": 7, "monument_name": "shepard, edward morse", "parkprop": "N", "parkname": "unknown", "Location": "CCNY; convent ave at 137th st" }, "geometry": null },
{ "type": "Feature", "properties": { "monument_id": 8, "monument_name": "Confucius", "parkprop": "N", "parkname": "unknown", "Location": "APPELLATE COURT; Madison Avenue and 25th Street" }, "geometry": { "type": "Point", "coordinates": [ -90.1366416, 38.7074271 ] } },
{ "type": "Feature", "properties": { "monument_id": 9, "monument_name": "Æsculapius", "parkprop": "N", "parkname": "unknown", "Location": "City College Library, Convent Avenue at 139th Street" }, "geometry": { "type": "Point", "coordinates": [ -73.9492724, 40.8200471 ] } },
{ "type": "Feature", "properties": { "monument_id": 10, "monument_name": "Admiral George Dewey Memorial", "parkprop": "Y", "parkname": "Battery Park", "Location": "Upper Promenade, southwest of Castle Clinton" }, "geometry": { "type": "Point", "coordinates": [ -74.0158441, 40.7115786 ] } },
{ "type": "Feature", "properties": { "monument_id": 11, "monument_name": "Drama", "parkprop": "O", "parkname": "Bryant Park", "Location": "New York Public Library; 42nd St. and 5th Avenue; East façade" }, "geometry": { "type": "Point", "coordinates": [ -73.9822534, 40.753182300000013 ] } },
{ "type": "Feature", "properties": { "monument_id": 12, "monument_name": "triumph of law", "parkprop": "N", "parkname": "unknown", "Location": "APPELLATE COURT -25TH ST. FAC; madison ave at 25th st." }, "geometry": { "type": "Point", "coordinates": [ -90.1366416, 38.7074271 ] } },
{ "type": "Feature", "properties": { "monument_id": 13, "monument_name": "Washington Heights Evening High School", "parkprop": "N", "parkname": "unknown", "Location": "P.S. 186; Amsterdam Avenue btwn 145-146th St." }, "geometry": { "type": "Point", "coordinates": [ -73.9486668, 40.8262349 ] } },
{ "type": "Feature", "properties": { "monument_id": 14, "monument_name": "poe, edgar allan", "parkprop": "N", "parkname": "unknown", "Location": "84TH ST. W. OF BROADWAY; nw corner of building" }, "geometry": null },
{ "type": "Feature", "properties": { "monument_id": 15, "monument_name": "wisdom", "parkprop": "N", "parkname": "unknown", "Location": "APPELLATE COURT BLDG ENTRANCE; madison avenue at 25th st" }, "geometry": { "type": "Point", "coordinates": [ -90.1366416, 38.7074271 ] } },
{ "type": "Feature", "properties": { "monument_id": 16, "monument_name": "washington, george bust", "parkprop": "N", "parkname": "unknown", "Location": "CITY HALL; governors room" }, "geometry": null },
{ "type": "Feature", "properties": { "monument_id": 17, "monument_name": "Foster, Rebecca Salome", "parkprop": "N", "parkname": "unknown", "Location": "CRIMINAL COURTS BUILDING; 100 Centre Street" }, "geometry": null },
{ "type": "Feature", "properties": { "monument_id": 18, "monument_name": "Boy and Girl", "parkprop": "N", "parkname": "unknown", "Location": "unknown" }, "geometry": null },
{ "type": "Feature", "properties": { "monument_id": 19, "monument_name": "Harlem Heights Middle Redoubt Marker", "parkprop": "N", "parkname": "unknown", "Location": "east section of Trinity Cemetery, Broadway and 153rd Street" }, "geometry": { "type": "Point", "coordinates": [ -73.946876, 40.8315245 ] } },
{ "type": "Feature", "properties": { "monument_id": 20, "monument_name": "Giovanni da Verrazzano", "parkprop": "Y", "parkname": "Battery Park", "Location": "North entrance pathway" }, "geometry": { "type": "Point", "coordinates": [ -74.0158441, 40.7115786 ] } },
{ "type": "Feature", "properties": { "monument_id": 21, "monument_name": "Cadwallader David Colden", "parkprop": "N", "parkname": "unknown", "Location": "Surrogate's Court/Hall of Records, 31 Chambers Street, Chambers Street façade, chief cornice, seventh from lef" }, "geometry": { "type": "Point", "coordinates": [ -74.0043655, 40.7134361 ] } },
{ "type": "Feature", "properties": { "monument_id": 22, "monument_name": "3000 A.D. Diffusion Piece", "parkprop": "Y", "parkname": "unknown", "Location": "Haven Avenue between West 173rd Street and West 176th Street" }, "geometry": { "type": "Point", "coordinates": [ -73.9387209, 40.8446445 ] } },
{ "type": "Feature", "properties": { "monument_id": 23, "monument_name": "James Duane", "parkprop": "N", "parkname": "unknown", "Location": "Surrogate's Court/Hall of Records, 31 Chambers Street, Chambers Street façade, chief cornice, eighth from left" }, "geometry": { "type": "Point", "coordinates": [ -74.0043655, 40.7134361 ] } },
{ "type": "Feature", "properties": { "monument_id": 24, "monument_name": "Poetry", "parkprop": "N", "parkname": "unknown", "Location": "Surrogate's Court/Hall of Records, 31 Chambers Street, Chambers Street façade, beside center window in attic" }, "geometry": { "type": "Point", "coordinates": [ -74.0043655, 40.7134361 ] } },
{ "type": "Feature", "properties": { "monument_id": 25, "monument_name": "public school #3", "parkprop": "N", "parkname": "unknown", "Location": "HUDSON AND GROVE STS." }, "geometry": null },
{ "type": "Feature", "properties": { "monument_id": 26, "monument_name": "Delury Plaza", "parkprop": "N", "parkname": "unknown", "Location": "LOWER MANHATTAN; Intersection of Fulton and Gold Streets" }, "geometry": { "type": "Point", "coordinates": [ -74.0055004, 40.7090918 ] } },
{ "type": "Feature", "properties": { "monument_id": 27, "monument_name": "John Ericsson", "parkprop": "Y", "parkname": "Battery Park", "Location": "Perimeter of park on State Street across from Bridge Street" }, "geometry": { "type": "Point", "coordinates": [ -74.0158441, 40.7115786 ] } },
{ "type": "Feature", "properties": { "monument_id": 28, "monument_name": "Robert F. Wagner Tree Marker", "parkprop": "N", "parkname": "unknown", "Location": "Madison Avenue between East 60th and East 61st Streets" }, "geometry": { "type": "Point", "coordinates": [ -94.4386266, 39.0107864 ] } },
{ "type": "Feature", "properties": { "monument_id": 29, "monument_name": "The Immigrants", "parkprop": "Y", "parkname": "Battery Park", "Location": "South of Castle Clinton" }, "geometry": { "type": "Point", "coordinates": [ -74.0168023, 40.7034401 ] } },
{ "type": "Feature", "properties": { "monument_id": 30, "monument_name": "Arsenal Landmark Plaque", "parkprop": "Y", "parkname": "Central Park", "Location": "The Arsenal, east façade, left of basement entrance" }, "geometry": { "type": "Point", "coordinates": [ -73.9655834, 40.7825547 ] } },
{ "type": "Feature", "properties": { "monument_id": 31, "monument_name": "Civic Pride", "parkprop": "N", "parkname": "unknown", "Location": "MUNICIPAL BUILDING; Chambers and Center Streets, arch south side" }, "geometry": { "type": "Point", "coordinates": [ -74.0036107, 40.7131386 ] } },
{ "type": "Feature", "properties": { "monument_id": 32, "monument_name": "Theodore Roosevelt", "parkprop": "Y", "parkname": "Theodore Roosevelt Park", "Location": "American Museum of Natural History, CPW and 79th St" }, "geometry": { "type": "Point", "coordinates": [ -73.9739882, 40.7813241 ] } },
{ "type": "Feature", "properties": { "monument_id": 33, "monument_name": "Poetry", "parkprop": "O", "parkname": "Bryant Park", "Location": "New York Public Library; 42nd St. and 5th Avenue" }, "geometry": { "type": "Point", "coordinates": [ -73.9822534, 40.753182300000013 ] } },
{ "type": "Feature", "properties": { "monument_id": 34, "monument_name": "Electricity", "parkprop": "N", "parkname": "unknown", "Location": "Surrogate's Court/Hall of Records, 31 Chambers Street, Reade Street elevation, chief cornice, second from left" }, "geometry": { "type": "Point", "coordinates": [ -74.0043655, 40.7134361 ] } },
{ "type": "Feature", "properties": { "monument_id": 35, "monument_name": "Netherland Monument", "parkprop": "Y", "parkname": "Battery Park", "Location": "Northeast entrance near intersection of State Street and Battery Place" }, "geometry": { "type": "Point", "coordinates": [ -74.0175414, 40.7068949 ] } },
{ "type": "Feature", "properties": { "monument_id": 36, "monument_name": "loomis, alfred lebbens", "parkprop": "N", "parkname": "unknown", "Location": "BELLEVUE HOSPITAL; foot of e. 26th st." }, "geometry": { "type": "Point", "coordinates": [ -73.9762044, 40.7396865 ] } },
{ "type": "Feature", "properties": { "monument_id": 37, "monument_name": "Large Coqui", "parkprop": "Y", "parkname": "unknown", "Location": "Houston Street and Essex Street; northwest corner of playground." }, "geometry": { "type": "Point", "coordinates": [ -73.9862703, 40.7222905 ] } },
{ "type": "Feature", "properties": { "monument_id": 38, "monument_name": "Sugar House Prison Window", "parkprop": "N", "parkname": "unknown", "Location": "MALL BETWN POLICE HQ&MUN BLDG; centre st." }, "geometry": null },
{ "type": "Feature", "properties": { "monument_id": 39, "monument_name": "Norwegian Veterans Monument", "parkprop": "Y", "parkname": "Battery Park", "Location": "Northwest of Castle Clinton" }, "geometry": { "type": "Point", "coordinates": [ -74.0168023, 40.7034401 ] } },
{ "type": "Feature", "properties": { "monument_id": 40, "monument_name": "Battery Park Cannon", "parkprop": "Y", "parkname": "Battery Park", "Location": "Perimeter of park on State Street between Bridge and Pearl Streets" }, "geometry": { "type": "Point", "coordinates": [ -74.0158441, 40.7115786 ] } },
{ "type": "Feature", "properties": { "monument_id": 41, "monument_name": "southerland, benjamin delamater", "parkprop": "N", "parkname": "unknown", "Location": "P.S. #3; hudson and grove Streets" }, "geometry": null },
{ "type": "Feature", "properties": { "monument_id": 42, "monument_name": "Peter Caesar Alberti Marker", "parkprop": "Y", "parkname": "Battery Park", "Location": "Perimeter of park on Battery Place between Greenwich and Washington Streets" }, "geometry": { "type": "Point", "coordinates": [ 0.0098214, 51.4933675 ] } },
{ "type": "Feature", "properties": { "monument_id": 43, "monument_name": "Recorder", "parkprop": "N", "parkname": "unknown", "Location": "Surrogate's Court/Hall of Records, 31 Chambers Street, Centre Street façade, beside center window in attic" }, "geometry": { "type": "Point", "coordinates": [ -74.0043655, 40.7134361 ] } },
{ "type": "Feature", "properties": { "monument_id": 44, "monument_name": "Isham Park Benches", "parkprop": "Y", "parkname": "unknown", "Location": "Broadway and 212th Street" }, "geometry": { "type": "Point", "coordinates": [ -73.9185087, 40.8685204 ] } },
{ "type": "Feature", "properties": { "monument_id": 45, "monument_name": "History", "parkprop": "N", "parkname": "unknown", "Location": "Surrogate's Court/Hall of Records, 31 Chambers Street, Reade Street elevation, beside center window in attic" }, "geometry": { "type": "Point", "coordinates": [ -74.0043655, 40.7134361 ] } },
{ "type": "Feature", "properties": { "monument_id": 46, "monument_name": "John Burroughs", "parkprop": "N", "parkname": "unknown", "Location": "P.S. 188; Lewis and Houston Streets" }, "geometry": { "type": "Point", "coordinates": [ -95.3701108, 29.7600771 ] } },
{ "type": "Feature", "properties": { "monument_id": 47, "monument_name": "New York In Revolutionary Times", "parkprop": "N", "parkname": "unknown", "Location": "Surrogate's Court/Hall of Records, 31 Chambers Street, Chambers Street entrance" }, "geometry": { "type": "Point", "coordinates": [ -74.0043655, 40.7134361 ] } },
{ "type": "Feature", "properties": { "monument_id": 48, "monument_name": "Jackie Robinson", "parkprop": "Y", "parkname": "Jackie Robinson Park", "Location": "West 147th St. and Bradhurst Avenue" }, "geometry": { "type": "Point", "coordinates": [ -73.9419641, 40.8245561 ] } },
{ "type": "Feature", "properties": { "monument_id": 49, "monument_name": "Harold E. Butternick", "parkprop": "N", "parkname": "unknown", "Location": "COMMERCE HIGH SCHOOL; 65th Street, between 8 and 7th Avenues" }, "geometry": { "type": "Point", "coordinates": [ -74.0009616, 40.7368306 ] } },
{ "type": "Feature", "properties": { "monument_id": 50, "monument_name": "Dante Alighieri", "parkprop": "Y", "parkname": "Dante Park", "Location": "Broadway & 63rd Street" }, "geometry": { "type": "Point", "coordinates": [ -73.9820465, 40.7713596 ] } },
{ "type": "Feature", "properties": { "monument_id": 51, "monument_name": "Lilian Wald", "parkprop": "Y", "parkname": "Lillian D. Wald Playground", "Location": "Cherry, Monroe and Gouverner Streets" }, "geometry": { "type": "Point", "coordinates": [ -73.984267, 40.7119655 ] } },
{ "type": "Feature", "properties": { "monument_id": 52, "monument_name": "public school #6", "parkprop": "N", "parkname": "unknown", "Location": "MADISON AVE AND 85TH ST" }, "geometry": { "type": "Point", "coordinates": [ -73.9593141, 40.7801735 ] } },
{ "type": "Feature", "properties": { "monument_id": 53, "monument_name": "David Pietersen De Vries", "parkprop": "N", "parkname": "unknown", "Location": "Surrogate's Court/Hall of Records, 31 Chambers Street, Chambers Street façade, chief cornice, first from left" }, "geometry": { "type": "Point", "coordinates": [ -74.0043655, 40.7134361 ] } },
{ "type": "Feature", "properties": { "monument_id": 54, "monument_name": "public school #66", "parkprop": "N", "parkname": "unknown", "Location": "AMSTERDAM AVE,; 108th and 109th Streets" }, "geometry": null },
{ "type": "Feature", "properties": { "monument_id": 55, "monument_name": "Industry", "parkprop": "N", "parkname": "unknown", "Location": "Surrogate's Court/Hall of Records, 31 Chambers Street, Elk Street elevation, beside center window in attic" }, "geometry": { "type": "Point", "coordinates": [ -74.0043655, 40.7134361 ] } },
{ "type": "Feature", "properties": { "monument_id": 56, "monument_name": "washington bridge", "parkprop": "N", "parkname": "unknown", "Location": "GEORGE WASHINGTON BRIDGE; w. 181st st. off amsterdam" }, "geometry": { "type": "Point", "coordinates": [ 4.9041389, 52.3675734 ] } },
{ "type": "Feature", "properties": { "monument_id": 57, "monument_name": "Civic Fame", "parkprop": "N", "parkname": "unknown", "Location": "MUNICIPAL BUILDING/TOWER; Chambers and Center Streets" }, "geometry": { "type": "Point", "coordinates": [ -74.0036107, 40.7131386 ] } },
{ "type": "Feature", "properties": { "monument_id": 58, "monument_name": "Wall Street Fountain", "parkprop": "Y", "parkname": "unknown", "Location": "130 Liberty Street" }, "geometry": { "type": "Point", "coordinates": [ -74.0132013, 40.7101178 ] } },
{ "type": "Feature", "properties": { "monument_id": 59, "monument_name": "Cupids with Tablets", "parkprop": "N", "parkname": "unknown", "Location": "MUNICIPAL BUILDING; Chambers and Center Streets" }, "geometry": { "type": "Point", "coordinates": [ -74.0036107, 40.7131386 ] } },
{ "type": "Feature", "properties": { "monument_id": 60, "monument_name": "Industry", "parkprop": "N", "parkname": "unknown", "Location": "Surrogate's Court/Hall of Records, 31 Chambers Street, Centre Street façade, chief cornice, third from left" }, "geometry": { "type": "Point", "coordinates": [ -74.0043655, 40.7134361 ] } },
{ "type": "Feature", "properties": { "monument_id": 61, "monument_name": "James J. Shepard", "parkprop": "N", "parkname": "unknown", "Location": "HIGH SCHOOL OF COMMERCE; 65th and 66th st. w. of broadway" }, "geometry": { "type": "Point", "coordinates": [ -72.5784286, 42.1066313 ] } },
{ "type": "Feature", "properties": { "monument_id": 62, "monument_name": "Medicine", "parkprop": "N", "parkname": "unknown", "Location": "Surrogate's Court/Hall of Records, 31 Chambers Street, Centre Street façade, chief cornice, second from left" }, "geometry": { "type": "Point", "coordinates": [ -74.0043655, 40.7134361 ] } },
{ "type": "Feature", "properties": { "monument_id": 63, "monument_name": "Eagles", "parkprop": "N", "parkname": "unknown", "Location": "MUNICIPAL BUILDING; Center and Chambers Streets" }, "geometry": { "type": "Point", "coordinates": [ -74.0036107, 40.7131386 ] } },
{ "type": "Feature", "properties": { "monument_id": 64, "monument_name": "Philip H. Sheridan", "parkprop": "O", "parkname": "Riverside Park", "Location": "GRANTS TOMB, Riverside Drive at 122nd St." }, "geometry": { "type": "Point", "coordinates": [ -73.9630671, 40.8134045 ] } },
{ "type": "Feature", "properties": { "monument_id": 65, "monument_name": "Jackie Robinson Recreation Center Reliefs", "parkprop": "Y", "parkname": "unknown", "Location": "\"Girls with Turtles\" and \"Girls with Frogs\" located in the main entrance above the womens and mens archways, respectively; \"Sailboat\" and \"Surfboard\" on south and north walls of the main lobby, respectively." }, "geometry": { "type": "Point", "coordinates": [ -91.1836618, 30.4514328 ] } },
{ "type": "Feature", "properties": { "monument_id": 66, "monument_name": "Tree of Hope", "parkprop": "Y", "parkname": "unknown", "Location": "Center median on Adam Clayton Powell Blvd. at West 131 Street" }, "geometry": { "type": "Point", "coordinates": [ -73.94548, 40.8127217 ] } },
{ "type": "Feature", "properties": { "monument_id": 67, "monument_name": "Armenian Grove Plaque", "parkprop": "Y", "parkname": "Union Square Park", "Location": "Northeast corner" }, "geometry": { "type": "Point", "coordinates": [ -73.9910835, 40.7358633 ] } },
{ "type": "Feature", "properties": { "monument_id": 68, "monument_name": "Tree of Hope III", "parkprop": "Y", "parkname": "unknown", "Location": "Adam Clayton Powell Blvd. at 131st Street" }, "geometry": { "type": "Point", "coordinates": [ -73.94548, 40.8127217 ] } },
{ "type": "Feature", "properties": { "monument_id": 69, "monument_name": "Justice", "parkprop": "N", "parkname": "unknown", "Location": "Surrogate's Court/Hall of Records, 31 Chambers Street, Reade Street elevation, chief cornice, first from left" }, "geometry": { "type": "Point", "coordinates": [ -74.0043655, 40.7134361 ] } },
{ "type": "Feature", "properties": { "monument_id": 70, "monument_name": "Public School #68", "parkprop": "N", "parkname": "unknown", "Location": "128TH ST. BTWN LENOX AVE AND; 7th Avenue" }, "geometry": { "type": "Point", "coordinates": [ -73.9442167, 40.8096347 ] } },
{ "type": "Feature", "properties": { "monument_id": 71, "monument_name": "The Garment Worker", "parkprop": "N", "parkname": "unknown", "Location": "West 40 Street and Seventh Avenue" }, "geometry": { "type": "Point", "coordinates": [ -73.987892, 40.75475 ] } },
{ "type": "Feature", "properties": { "monument_id": 72, "monument_name": "Tomorrow's Wind", "parkprop": "Y", "parkname": "Thomas Jefferson Park", "Location": "behind Recreation Center and pool" }, "geometry": { "type": "Point", "coordinates": [ -73.9352341, 40.7933578 ] } },
{ "type": "Feature", "properties": { "monument_id": 73, "monument_name": "Hamilton W. Robinson", "parkprop": "N", "parkname": "unknown", "Location": "COUNTY COURTHOUSE - RM. 317; prince and centre Streets" }, "geometry": null },
{ "type": "Feature", "properties": { "monument_id": 74, "monument_name": "Peace Fountain", "parkprop": "N", "parkname": "unknown", "Location": "ST. JOHN'S CATHEDRAL; W. 110th St. and Amsterdam Avenue" }, "geometry": { "type": "Point", "coordinates": [ -73.9618754, 40.8038356 ] } },
{ "type": "Feature", "properties": { "monument_id": 75, "monument_name": "spring", "parkprop": "N", "parkname": "unknown", "Location": "APPELATE COURT - MAD AVE. FAC.; madison ave at 25th st" }, "geometry": { "type": "Point", "coordinates": [ -90.1366416, 38.7074271 ] } },
{ "type": "Feature", "properties": { "monument_id": 76, "monument_name": "Allen Street Mall (Scholar's Rock Garden)", "parkprop": "Y", "parkname": "unknown", "Location": "Allen Street between Broome Street and Delancey Street" }, "geometry": { "type": "Point", "coordinates": [ -73.9994536, 40.7216126 ] } },
{ "type": "Feature", "properties": { "monument_id": 77, "monument_name": "John T. Brush Stairway", "parkprop": "Y", "parkname": "Highbridge Park", "Location": "Edgecombe Avenue and 158th Street" }, "geometry": { "type": "Point", "coordinates": [ -73.9396769, 40.8326904 ] } },
{ "type": "Feature", "properties": { "monument_id": 78, "monument_name": "Badame Sessa Memorial", "parkprop": "Y", "parkname": "unknown", "Location": "Northeast corner of the park" }, "geometry": null },
{ "type": "Feature", "properties": { "monument_id": 79, "monument_name": "James Madison Tree Marker", "parkprop": "Y", "parkname": "Madison Square Park", "Location": "Between 24th and 25th Street on Madison Ave" }, "geometry": { "type": "Point", "coordinates": [ -73.9870435, 40.7421612 ] } },
{ "type": "Feature", "properties": { "monument_id": 80, "monument_name": "Hansborough Natatorium", "parkprop": "Y", "parkname": "Hansborough Gymnasium and Public Bath", "Location": "35 West 134th Street" }, "geometry": { "type": "Point", "coordinates": [ -73.9394468, 40.8128937 ] } },
{ "type": "Feature", "properties": { "monument_id": 81, "monument_name": "Shadows and Flags", "parkprop": "N", "parkname": "unknown", "Location": "Louise Nevelson Plaza, William Street and Liberty Street" }, "geometry": { "type": "Point", "coordinates": [ -74.0079322, 40.7076284 ] } },
{ "type": "Feature", "properties": { "monument_id": 82, "monument_name": "licenses", "parkprop": "N", "parkname": "unknown", "Location": "MUNICIPAL BUILDING; chambers and centre Streets" }, "geometry": null },
{ "type": "Feature", "properties": { "monument_id": 83, "monument_name": "police headquarters (old)", "parkprop": "N", "parkname": "unknown", "Location": "CENTRE AND LAFAYETTE STS" }, "geometry": null },
{ "type": "Feature", "properties": { "monument_id": 84, "monument_name": "old sugar house", "parkprop": "N", "parkname": "unknown", "Location": "unknown" }, "geometry": null },
{ "type": "Feature", "properties": { "monument_id": 85, "monument_name": "hobart, john sloss", "parkprop": "N", "parkname": "unknown", "Location": "COUNTY COURT HOUSE, ROOM 316; centre and prince sts" }, "geometry": null },
{ "type": "Feature", "properties": { "monument_id": 86, "monument_name": "Peter Pan", "parkprop": "Y", "parkname": "Carl Schurz Park", "Location": "unknown" }, "geometry": { "type": "Point", "coordinates": [ -73.9436973, 40.7751302 ] } },
{ "type": "Feature", "properties": { "monument_id": 87, "monument_name": "Togo", "parkprop": "Y", "parkname": "unknown", "Location": "Seward Park Library Plaza" }, "geometry": { "type": "Point", "coordinates": [ -73.9884896, 40.7144701 ] } },
{ "type": "Feature", "properties": { "monument_id": 88, "monument_name": "De Witt Clinton", "parkprop": "N", "parkname": "unknown", "Location": "Surrogate's Court/Hall of Records, 31 Chambers Street, Chambers Street façade, chief cornice, third from left" }, "geometry": { "type": "Point", "coordinates": [ -74.0043655, 40.7134361 ] } },
{ "type": "Feature", "properties": { "monument_id": 89, "monument_name": "Police Headquarters", "parkprop": "N", "parkname": "unknown", "Location": "CENTRE AND LAFAYETTE STS" }, "geometry": null },
{ "type": "Feature", "properties": { "monument_id": 90, "monument_name": "Morris-Jumel Mansion", "parkprop": "Y", "parkname": "Roger Morris Park", "Location": "Edgecomb Ave at 160th Street, left gatepost" }, "geometry": { "type": "Point", "coordinates": [ -73.9383369, 40.8346461 ] } },
{ "type": "Feature", "properties": { "monument_id": 91, "monument_name": "justice", "parkprop": "N", "parkname": "unknown", "Location": "APPELLATE COURT; madison ave at 25th st" }, "geometry": { "type": "Point", "coordinates": [ -90.1366416, 38.7074271 ] } },
{ "type": "Feature", "properties": { "monument_id": 92, "monument_name": "Charles O'Conor", "parkprop": "N", "parkname": "unknown", "Location": "Appellate Court Building, Main Hall; Madison Avenue at 25th St." }, "geometry": { "type": "Point", "coordinates": [ -90.1366416, 38.7074271 ] } },
{ "type": "Feature", "properties": { "monument_id": 93, "monument_name": "Jenny Lind", "parkprop": "N", "parkname": "unknown", "Location": "Museum of the City of New York" }, "geometry": { "type": "Point", "coordinates": [ -73.9519089, 40.7924939 ] } },
{ "type": "Feature", "properties": { "monument_id": 94, "monument_name": "Damrosch Park", "parkprop": "Y", "parkname": "Damrosch Park", "Location": "West 62nd Street entrance to Lincoln Center" }, "geometry": { "type": "Point", "coordinates": [ -73.9834889, 40.7724641 ] } },
{ "type": "Feature", "properties": { "monument_id": 95, "monument_name": "John Finley Walk", "parkprop": "Y", "parkname": "Carl Schurz Park", "Location": "Silhouette A (North) on elevated walk near East 86th Street and Silhouette B (South) at East 81st Street Pedestrian Bridge; Elevated walk over East River Drive" }, "geometry": { "type": "Point", "coordinates": [ -73.952194, 40.7780586 ] } },
{ "type": "Feature", "properties": { "monument_id": 96, "monument_name": "Fort Prince Charles", "parkprop": "N", "parkname": "unknown", "Location": "unknown" }, "geometry": null },
{ "type": "Feature", "properties": { "monument_id": 97, "monument_name": "johabbes verveeken ferry", "parkprop": "N", "parkname": "unknown", "Location": "unknown" }, "geometry": null },
{ "type": "Feature", "properties": { "monument_id": 98, "monument_name": "Iron Age", "parkprop": "N", "parkname": "unknown", "Location": "Surrogate's Court/Hall of Records, 31 Chambers Street, Reade Street elevation, chief cornice, sixth from left" }, "geometry": { "type": "Point", "coordinates": [ -74.0043655, 40.7134361 ] } },
{ "type": "Feature", "properties": { "monument_id": 99, "monument_name": "John Wolfe Ambrose", "parkprop": "Y", "parkname": "Battery Park", "Location": "South side of State Street between Pearl and Water Streets." }, "geometry": { "type": "Point", "coordinates": [ -74.0158441, 40.7115786 ] } },
{ "type": "Feature", "properties": { "monument_id": 100, "monument_name": "Dyckman House Tablet", "parkprop": "Y", "parkname": "Dyckman House Museum", "Location": "Broadway and West 204th Street; mounted on stone wall off of Broadway" }, "geometry": { "type": "Point", "coordinates": [ -73.9231162, 40.867022899999988 ] } },
{ "type": "Feature", "properties": { "monument_id": 101, "monument_name": "Blackwell Homestead", "parkprop": "O", "parkname": "unknown", "Location": "Roosevelt Island" }, "geometry": { "type": "Point", "coordinates": [ -73.9509934, 40.7605031 ] } },
{ "type": "Feature", "properties": { "monument_id": 102, "monument_name": "Dr. Sun Yat-sen Monument", "parkprop": "Y", "parkname": "unknown", "Location": "Bayard Street between Baxter Street and Mulberry Street" }, "geometry": null },
{ "type": "Feature", "properties": { "monument_id": 103, "monument_name": "Maternity", "parkprop": "N", "parkname": "unknown", "Location": "Surrogate's Court/Hall of Records, 31 Chambers Street, Chambers Street façade, beside center window in attic" }, "geometry": { "type": "Point", "coordinates": [ -74.0043655, 40.7134361 ] } },
{ "type": "Feature", "properties": { "monument_id": 104, "monument_name": "Fort George Memorial Tablet", "parkprop": "Y", "parkname": "Battery Park", "Location": "Perimeter of park on State Street between Bridge and Pearl Streets" }, "geometry": { "type": "Point", "coordinates": [ -74.0158441, 40.7115786 ] } },
{ "type": "Feature", "properties": { "monument_id": 105, "monument_name": "Tradition", "parkprop": "N", "parkname": "unknown", "Location": "Surrogate's Court/Hall of Records, 31 Chambers Street, Reade Street elevation, chief cornice, fifth from left" }, "geometry": { "type": "Point", "coordinates": [ -74.0043655, 40.7134361 ] } },
{ "type": "Feature", "properties": { "monument_id": 106, "monument_name": "washington, george city hall", "parkprop": "N", "parkname": "unknown", "Location": "CITY HALL  (SEE MEMO); interior, left wall" }, "geometry": null },
{ "type": "Feature", "properties": { "monument_id": 107, "monument_name": "justice: see city hall", "parkprop": "N", "parkname": "unknown", "Location": "unknown" }, "geometry": null },
{ "type": "Feature", "properties": { "monument_id": 108, "monument_name": "Jerusalem Grove", "parkprop": "Y", "parkname": "Battery Park", "Location": "Northwest of Castle Clinton" }, "geometry": { "type": "Point", "coordinates": [ -74.0168023, 40.7034401 ] } },
{ "type": "Feature", "properties": { "monument_id": 109, "monument_name": "Bill \"Bojangles\" Robinson Mural", "parkprop": "Y", "parkname": "Bill \"Bojangles\" Robinson Playground", "Location": "West 150th Street, west side of 7 Avenue" }, "geometry": { "type": "Point", "coordinates": [ -73.9374102, 40.8251959 ] } },
{ "type": "Feature", "properties": { "monument_id": 110, "monument_name": "Salvation Army Monument", "parkprop": "Y", "parkname": "Battery Park", "Location": "Perimeter of park on Battery Place, west of Greenwich Street" }, "geometry": { "type": "Point", "coordinates": [ -74.0078147, 40.7317921 ] } },
{ "type": "Feature", "properties": { "monument_id": 111, "monument_name": "Walloon Settlers Memorial", "parkprop": "Y", "parkname": "Battery Park", "Location": "Perimeter of park on Battery Place" }, "geometry": { "type": "Point", "coordinates": [ -74.0158441, 40.7115786 ] } },
{ "type": "Feature", "properties": { "monument_id": 112, "monument_name": "Wireless Operators Memorial", "parkprop": "Y", "parkname": "Battery Park", "Location": "Perimeter of park on State Street" }, "geometry": { "type": "Point", "coordinates": [ -74.0158441, 40.7115786 ] } },
{ "type": "Feature", "properties": { "monument_id": 113, "monument_name": "Winter", "parkprop": "N", "parkname": "unknown", "Location": "Surrogate's Court/Hall of Records, 31 Chambers Street, Chambers Street façade, beside center window in attic" }, "geometry": { "type": "Point", "coordinates": [ -74.0043655, 40.7134361 ] } },
{ "type": "Feature", "properties": { "monument_id": 114, "monument_name": "peace", "parkprop": "N", "parkname": "unknown", "Location": "APPELLATE COURT BUILDING; madison ave at 25th st" }, "geometry": { "type": "Point", "coordinates": [ -90.1366416, 38.7074271 ] } },
{ "type": "Feature", "properties": { "monument_id": 115, "monument_name": "Gracie Mansion Landmark Tablet", "parkprop": "Y", "parkname": "Carl Schurz Park", "Location": "East 89th Street and East End Avenue" }, "geometry": { "type": "Point", "coordinates": [ -73.9434038, 40.7769136 ] } },
{ "type": "Feature", "properties": { "monument_id": 116, "monument_name": "General Jose de San Martin", "parkprop": "Y", "parkname": "Central Park", "Location": "Central Park South and Avenue of the Americas" }, "geometry": { "type": "Point", "coordinates": [ -73.9762371, 40.765741899999988 ] } },
{ "type": "Feature", "properties": { "monument_id": 117, "monument_name": "police headquarters (old)", "parkprop": "N", "parkname": "unknown", "Location": "CENTRE AND LAFAYETTE ST" }, "geometry": null },
{ "type": "Feature", "properties": { "monument_id": 118, "monument_name": "Samuel Sullivan Cox", "parkprop": "Y", "parkname": "Tompkins Square Park", "Location": "Avenue A at 8th Street" }, "geometry": { "type": "Point", "coordinates": [ -73.983542, 40.7260566 ] } },
{ "type": "Feature", "properties": { "monument_id": 119, "monument_name": "Rocky Mountain Goats", "parkprop": "O", "parkname": "Central Park", "Location": "Central Park Zoo; Central Park Wildlife Center, west side of south façade" }, "geometry": { "type": "Point", "coordinates": [ -73.9719906, 40.7677061 ] } },
{ "type": "Feature", "properties": { "monument_id": 120, "monument_name": "Temperance Fountain", "parkprop": "Y", "parkname": "Tompkins Square Park", "Location": "Near Avenue A, south of 9th Street transverse" }, "geometry": { "type": "Point", "coordinates": [ -73.9817841, 40.726429499999988 ] } },
{ "type": "Feature", "properties": { "monument_id": 121, "monument_name": "Polly Gordon Walk", "parkprop": "Y", "parkname": "unknown", "Location": "near park entrance at East 84th Street" }, "geometry": { "type": "Point", "coordinates": [ -73.9543814, 40.7772723 ] } },
{ "type": "Feature", "properties": { "monument_id": 122, "monument_name": "Joseph Pulitzer", "parkprop": "Y", "parkname": "City Hall Park", "Location": "Northeast corner" }, "geometry": { "type": "Point", "coordinates": [ -74.0065164, 40.7124142 ] } },
{ "type": "Feature", "properties": { "monument_id": 123, "monument_name": "washington, george city hall bust", "parkprop": "N", "parkname": "unknown", "Location": "CITY HALL; 2nd floor" }, "geometry": null },
{ "type": "Feature", "properties": { "monument_id": 124, "monument_name": "East 54th Street Recreation Center Plaque", "parkprop": "Y", "parkname": "unknown", "Location": "Mounted on wall in main lobby of rec center" }, "geometry": null },
{ "type": "Feature", "properties": { "monument_id": 125, "monument_name": "John F. Kennedy Memorial Bust (original)", "parkprop": "Y", "parkname": "unknown", "Location": "The Arsenal, Office of General Counsel, 3rd Floor" }, "geometry": null },
{ "type": "Feature", "properties": { "monument_id": 126, "monument_name": "George Washington", "parkprop": "Y", "parkname": "Union Square Park", "Location": "South end" }, "geometry": { "type": "Point", "coordinates": [ -80.8587772, 35.2125577 ] } },
{ "type": "Feature", "properties": { "monument_id": 127, "monument_name": "Philosophy", "parkprop": "N", "parkname": "unknown", "Location": "Surrogate's Court/Hall of Records, 31 Chambers Street, Chambers Street façade, beside center window in attic" }, "geometry": { "type": "Point", "coordinates": [ -74.0043655, 40.7134361 ] } },
{ "type": "Feature", "properties": { "monument_id": 128, "monument_name": "hale, nathan", "parkprop": "N", "parkname": "unknown", "Location": "UN INT'L SCHOOL, SE CORNER; first ave at 51st st" }, "geometry": null },
{ "type": "Feature", "properties": { "monument_id": 129, "monument_name": "Castello Plan", "parkprop": "Y", "parkname": "Peter Minuit Park", "Location": "State Street, between the Staten Island Ferry and Whitehall Street" }, "geometry": { "type": "Point", "coordinates": [ -74.1502007, 40.5795317 ] } },
{ "type": "Feature", "properties": { "monument_id": 130, "monument_name": "zoroaster", "parkprop": "N", "parkname": "unknown", "Location": "APPELLATE COURT- 25TH ST FAC; madison ave at 25th st" }, "geometry": { "type": "Point", "coordinates": [ -90.1366416, 38.7074271 ] } },
{ "type": "Feature", "properties": { "monument_id": 131, "monument_name": "Moses", "parkprop": "N", "parkname": "unknown", "Location": "APPELLATE COURT BUILDING; Madison Avenue and 25th St." }, "geometry": { "type": "Point", "coordinates": [ -90.1366416, 38.7074271 ] } },
{ "type": "Feature", "properties": { "monument_id": 132, "monument_name": "Catfish Waterjets", "parkprop": "N", "parkname": "unknown", "Location": "West End Towers Park, West End Avenue between 63rd and 64th Streets" }, "geometry": null },
{ "type": "Feature", "properties": { "monument_id": 133, "monument_name": "Lilac Walk", "parkprop": "Y", "parkname": "Central Park", "Location": "Northeast end of Sheep Meadow" }, "geometry": { "type": "Point", "coordinates": [ -73.9748418, 40.7717813 ] } },
{ "type": "Feature", "properties": { "monument_id": 134, "monument_name": "Eagles and Prey", "parkprop": "Y", "parkname": "Central Park", "Location": "unknown" }, "geometry": { "type": "Point", "coordinates": [ -73.9655834, 40.7825547 ] } },
{ "type": "Feature", "properties": { "monument_id": 135, "monument_name": "Edwin Franko Goldman", "parkprop": "Y", "parkname": "Central Park", "Location": "Right wall of Naumberg Bandshell" }, "geometry": { "type": "Point", "coordinates": [ -73.9655834, 40.7825547 ] } },
{ "type": "Feature", "properties": { "monument_id": 136, "monument_name": "Gus Campise", "parkprop": "O", "parkname": "Central Park", "Location": "Tennis Building at 93rd Street" }, "geometry": { "type": "Point", "coordinates": [ -73.9655834, 40.7825547 ] } },
{ "type": "Feature", "properties": { "monument_id": 137, "monument_name": "Central Park Tablet", "parkprop": "Y", "parkname": "Central Park", "Location": "Exterior of Arsenal Building, ground floor" }, "geometry": { "type": "Point", "coordinates": [ -73.9655834, 40.7825547 ] } },
{ "type": "Feature", "properties": { "monument_id": 138, "monument_name": "Urns - central park (4)", "parkprop": "Y", "parkname": "Central Park", "Location": "Mall" }, "geometry": { "type": "Point", "coordinates": [ -73.9655834, 40.7825547 ] } },
{ "type": "Feature", "properties": { "monument_id": 139, "monument_name": "The Rowers", "parkprop": "Y", "parkname": "Central Park", "Location": "Terrace in front of Loeb Boathouse; East Drive at 75th St." }, "geometry": { "type": "Point", "coordinates": [ -73.9655834, 40.7825547 ] } },
{ "type": "Feature", "properties": { "monument_id": 140, "monument_name": "richmond hill mansion", "parkprop": "N", "parkname": "unknown", "Location": "BUILDING, 7TH AVE.; charlton and varick Streets" }, "geometry": { "type": "Point", "coordinates": [ -74.0061669, 40.723799 ] } },
{ "type": "Feature", "properties": { "monument_id": 141, "monument_name": "Rhesus and Ring-Tailed Lemurs", "parkprop": "O", "parkname": "Central Park", "Location": "Central Park Zoo; School, south façade above entrance" }, "geometry": { "type": "Point", "coordinates": [ -73.9719906, 40.7677061 ] } },
{ "type": "Feature", "properties": { "monument_id": 142, "monument_name": "louis ix", "parkprop": "N", "parkname": "unknown", "Location": "APPELLATE COURT BLDG; madison ave at 25th st." }, "geometry": { "type": "Point", "coordinates": [ -90.1366416, 38.7074271 ] } },
{ "type": "Feature", "properties": { "monument_id": 143, "monument_name": "Vanderbilt, Mr. & Mrs. Tablet", "parkprop": "Y", "parkname": "Central Park", "Location": "Conservatory Garden Gate; 105th Street and 5th Avenue" }, "geometry": { "type": "Point", "coordinates": [ -73.9656176, 40.7744147 ] } },
{ "type": "Feature", "properties": { "monument_id": 144, "monument_name": "Augustus Heckscher Gate Posts", "parkprop": "Y", "parkname": "Central Park", "Location": "Heckscher Playground entrance" }, "geometry": { "type": "Point", "coordinates": [ -73.9772285, 40.7684641 ] } },
{ "type": "Feature", "properties": { "monument_id": 145, "monument_name": "Daniel Webster", "parkprop": "Y", "parkname": "Central Park", "Location": "West Drive at East 72nd Street" }, "geometry": { "type": "Point", "coordinates": [ -73.9594272, 40.7692572 ] } },
{ "type": "Feature", "properties": { "monument_id": 146, "monument_name": "washington irving high school", "parkprop": "N", "parkname": "unknown", "Location": "IRVING PLACE; between 16th and 17th st" }, "geometry": null },
{ "type": "Feature", "properties": { "monument_id": 147, "monument_name": "One Hundred Seventh Infantry Memorial", "parkprop": "Y", "parkname": "Central Park", "Location": "Fifth Avenue at 67th Street" }, "geometry": { "type": "Point", "coordinates": [ -73.96936310000001, 40.7692766 ] } },
{ "type": "Feature", "properties": { "monument_id": 148, "monument_name": "Greensward Plan", "parkprop": "Y", "parkname": "unknown", "Location": "(Not Available to Public; Removed from Arsenal for Conservation); (Not Available to Public; Removed from Arsenal for Conservation)" }, "geometry": null },
{ "type": "Feature", "properties": { "monument_id": 149, "monument_name": "Zoo", "parkprop": "Y", "parkname": "Central Park", "Location": "Entrance to Arsenal; 5th Avenue at 64th Street" }, "geometry": { "type": "Point", "coordinates": [ -73.9712496, 40.7677306 ] } },
{ "type": "Feature", "properties": { "monument_id": 150, "monument_name": "Beisa, Eland Gnu", "parkprop": "O", "parkname": "unknown", "Location": "Central Park Zoo; East Wall, Antelope House" }, "geometry": null },
{ "type": "Feature", "properties": { "monument_id": 151, "monument_name": "Mount Saint Vincent Plaque", "parkprop": "Y", "parkname": "Central Park", "Location": "northwest of Conservatory Garden" }, "geometry": { "type": "Point", "coordinates": [ -73.9655834, 40.7825547 ] } },
{ "type": "Feature", "properties": { "monument_id": 152, "monument_name": "Albert Bertel Thorvaldsen", "parkprop": "Y", "parkname": "Central Park", "Location": "5th Avenue at 96th Street" }, "geometry": { "type": "Point", "coordinates": [ -73.9656176, 40.7744147 ] } },
{ "type": "Feature", "properties": { "monument_id": 153, "monument_name": "public service commission", "parkprop": "N", "parkname": "unknown", "Location": "MUNICPAL BUILDING; chambers and centre Streets" }, "geometry": { "type": "Point", "coordinates": [ -75.7711269, 42.3297816 ] } },
{ "type": "Feature", "properties": { "monument_id": 154, "monument_name": "Building Inspection", "parkprop": "N", "parkname": "unknown", "Location": "MUNICIPAL BUILDING; Chambers Street and Center Street" }, "geometry": { "type": "Point", "coordinates": [ -74.0036107, 40.7131386 ] } },
{ "type": "Feature", "properties": { "monument_id": 155, "monument_name": "Queen Elizabeth II", "parkprop": "N", "parkname": "unknown", "Location": "WATER ST. AND PINE ST." }, "geometry": { "type": "Point", "coordinates": [ -74.0067436, 40.7057669 ] } },
{ "type": "Feature", "properties": { "monument_id": 156, "monument_name": "unknown hero plaque", "parkprop": "N", "parkname": "unknown", "Location": "U.S. CUSTOMS HOUSE; bowling green" }, "geometry": { "type": "Point", "coordinates": [ -74.013747200000012, 40.7040667 ] } },
{ "type": "Feature", "properties": { "monument_id": 157, "monument_name": "McGown's Pass Cannons", "parkprop": "Y", "parkname": "Central Park", "Location": "unknown" }, "geometry": { "type": "Point", "coordinates": [ -73.9655834, 40.7825547 ] } },
{ "type": "Feature", "properties": { "monument_id": 158, "monument_name": "Pinetum", "parkprop": "Y", "parkname": "Central Park", "Location": "Back of 86th Street shop" }, "geometry": { "type": "Point", "coordinates": [ -73.9655834, 40.7825547 ] } },
{ "type": "Feature", "properties": { "monument_id": 159, "monument_name": "u.s. custom house - monument list", "parkprop": "N", "parkname": "unknown", "Location": "unknown" }, "geometry": null },
{ "type": "Feature", "properties": { "monument_id": 160, "monument_name": "guidance", "parkprop": "N", "parkname": "unknown", "Location": "CHAMBERS & CENTRE STS; municipal bldg  chambers st. arch" }, "geometry": null },
{ "type": "Feature", "properties": { "monument_id": 161, "monument_name": "Knights of Pythias Memorial", "parkprop": "Y", "parkname": "Central Park", "Location": "Memorial Grove" }, "geometry": { "type": "Point", "coordinates": [ -92.1118751, 37.7403991 ] } },
{ "type": "Feature", "properties": { "monument_id": 162, "monument_name": "Alexander Hamilton", "parkprop": "N", "parkname": "unknown", "Location": "MUSEUM OF CITY OF NEW YORK; 103rd and 5th ave" }, "geometry": { "type": "Point", "coordinates": [ -73.9519089, 40.7924939 ] } },
{ "type": "Feature", "properties": { "monument_id": 163, "monument_name": "Washington High School", "parkprop": "N", "parkname": "unknown", "Location": "AUDOBON AVE. AT 192ND ST." }, "geometry": { "type": "Point", "coordinates": [ -73.9273259, 40.8555997 ] } },
{ "type": "Feature", "properties": { "monument_id": 164, "monument_name": "African Antelopes", "parkprop": "O", "parkname": "Central Park", "Location": "Central Park Zoo; Central Park Wildlife Center; center of east façade" }, "geometry": { "type": "Point", "coordinates": [ -73.9719906, 40.7677061 ] } },
{ "type": "Feature", "properties": { "monument_id": 165, "monument_name": "American Antelopes", "parkprop": "O", "parkname": "Central Park", "Location": "Central Park Zoo; School, center of east façade" }, "geometry": { "type": "Point", "coordinates": [ -73.9719906, 40.7677061 ] } },
{ "type": "Feature", "properties": { "monument_id": 166, "monument_name": "Pilgrim", "parkprop": "Y", "parkname": "Central Park", "Location": "East 72nd St. entrance" }, "geometry": { "type": "Point", "coordinates": [ -73.9655834, 40.7825547 ] } },
{ "type": "Feature", "properties": { "monument_id": 167, "monument_name": "Eagles", "parkprop": "Y", "parkname": "Central Park", "Location": "Central Park Wildlife Center, Fifth Avenue at 64th Street" }, "geometry": { "type": "Point", "coordinates": [ -73.9655834, 40.7825547 ] } },
{ "type": "Feature", "properties": { "monument_id": 168, "monument_name": "Burnett Memorial Fountain", "parkprop": "Y", "parkname": "Central Park", "Location": "Southern end of Conservatory Garden" }, "geometry": { "type": "Point", "coordinates": [ -73.9655834, 40.7825547 ] } },
{ "type": "Feature", "properties": { "monument_id": 169, "monument_name": "Justice", "parkprop": "N", "parkname": "unknown", "Location": "New York County Court House, Centre Street and Hamill Place" }, "geometry": { "type": "Point", "coordinates": [ -74.0012708, 40.7163033 ] } },
{ "type": "Feature", "properties": { "monument_id": 170, "monument_name": "Peace Clock", "parkprop": "Y", "parkname": "unknown", "Location": "1st Avenue between 41st and 42nd Streets" }, "geometry": null },
{ "type": "Feature", "properties": { "monument_id": 171, "monument_name": "Wien Walk Plaques", "parkprop": "Y", "parkname": "Central Park", "Location": "either side of Scholars Gate" }, "geometry": { "type": "Point", "coordinates": [ -73.9655834, 40.7825547 ] } },
{ "type": "Feature", "properties": { "monument_id": 172, "monument_name": "The Arts", "parkprop": "O", "parkname": "Bryant Park", "Location": "New York Public Library; 42nd St. and 5th Avenue; South Pediment" }, "geometry": { "type": "Point", "coordinates": [ -73.9822534, 40.753182300000013 ] } },
{ "type": "Feature", "properties": { "monument_id": 173, "monument_name": "S. Rankin Drew Marker", "parkprop": "Y", "parkname": "Central Park", "Location": "North end of mall" }, "geometry": { "type": "Point", "coordinates": [ -73.9655834, 40.7825547 ] } },
{ "type": "Feature", "properties": { "monument_id": 174, "monument_name": "truax, charles henry", "parkprop": "N", "parkname": "unknown", "Location": "SUPREME COURT HOUSE; room 201" }, "geometry": null },
{ "type": "Feature", "properties": { "monument_id": 175, "monument_name": "Anna Atkins Heckscher", "parkprop": "Y", "parkname": "Central Park", "Location": "Heckscher Playground; Recreation Building west side architrave" }, "geometry": { "type": "Point", "coordinates": [ -73.9772285, 40.7684641 ] } },
{ "type": "Feature", "properties": { "monument_id": 176, "monument_name": "justice", "parkprop": "N", "parkname": "unknown", "Location": "CITY HALL" }, "geometry": null },
{ "type": "Feature", "properties": { "monument_id": 177, "monument_name": "William Church Osborn Gates", "parkprop": "Y", "parkname": "Central Park", "Location": "Fifth Avenue and East 84th-85th Streets" }, "geometry": { "type": "Point", "coordinates": [ -73.9613768, 40.7802148 ] } },
{ "type": "Feature", "properties": { "monument_id": 178, "monument_name": "The Falconer", "parkprop": "Y", "parkname": "Central Park", "Location": "West 72nd Street (transverse road)" }, "geometry": { "type": "Point", "coordinates": [ -73.9594272, 40.7692572 ] } },
{ "type": "Feature", "properties": { "monument_id": 179, "monument_name": "Duke Ellington Memorial", "parkprop": "Y", "parkname": "Central Park", "Location": "Duke Ellington Circle, 110th Street and 5th Avenue" }, "geometry": { "type": "Point", "coordinates": [ -73.9496931, 40.7970781 ] } },
{ "type": "Feature", "properties": { "monument_id": 180, "monument_name": "Robert Skirving Pirie", "parkprop": "Y", "parkname": "Central Park", "Location": "100 feet south of Kerbs Boathouse, Conservatory Lake area" }, "geometry": { "type": "Point", "coordinates": [ -73.9655834, 40.7825547 ] } },
{ "type": "Feature", "properties": { "monument_id": 181, "monument_name": "369th Infantry Regiment Memorial", "parkprop": "Y", "parkname": "unknown", "Location": "Fifth Avenue and West 142nd Street" }, "geometry": { "type": "Point", "coordinates": [ -73.9344693, 40.8171726 ] } },
{ "type": "Feature", "properties": { "monument_id": 182, "monument_name": "College of the City of New York", "parkprop": "O", "parkname": "unknown", "Location": "MAIN BUILDING; Convent Avenue and W. 137th Street" }, "geometry": { "type": "Point", "coordinates": [ -73.9487727, 40.8211747 ] } },
{ "type": "Feature", "properties": { "monument_id": 183, "monument_name": "Delacorte Clock", "parkprop": "Y", "parkname": "Central Park", "Location": "Main walkway between Zoo and Children's Zoo" }, "geometry": { "type": "Point", "coordinates": [ -73.9655834, 40.7825547 ] } },
{ "type": "Feature", "properties": { "monument_id": 184, "monument_name": "graham, david", "parkprop": "N", "parkname": "unknown", "Location": "COUNTY COURT HOUSE, ROOM 216; chambers and centre st." }, "geometry": null },
{ "type": "Feature", "properties": { "monument_id": 185, "monument_name": "Christopher Columbus", "parkprop": "Y", "parkname": "Central Park", "Location": "South end of Mall" }, "geometry": { "type": "Point", "coordinates": [ -73.9655834, 40.7825547 ] } },
{ "type": "Feature", "properties": { "monument_id": 186, "monument_name": "Bird Flying Machine", "parkprop": "Y", "parkname": "Central Park", "Location": "Arsenal South Roof, southwest corner facing southwest turret" }, "geometry": { "type": "Point", "coordinates": [ -73.9655834, 40.7825547 ] } },
{ "type": "Feature", "properties": { "monument_id": 187, "monument_name": "Titanic Memorial Lighthouse", "parkprop": "N", "parkname": "unknown", "Location": "S. ST SEAPORT MUSEUM (SEE MEMO; orig. atop seamen's church inst." }, "geometry": null },
{ "type": "Feature", "properties": { "monument_id": 188, "monument_name": "Waldo Hutchins", "parkprop": "Y", "parkname": "Central Park", "Location": "5th Avenue at 72nd Street" }, "geometry": { "type": "Point", "coordinates": [ -73.967043600000011, 40.772461500000013 ] } },
{ "type": "Feature", "properties": { "monument_id": 189, "monument_name": "Frederick H.A. Von Humboldt", "parkprop": "O", "parkname": "Theodore Roosevelt Park", "Location": "Natural History Museum; Rotunda" }, "geometry": { "type": "Point", "coordinates": [ -73.9742272, 40.7824902 ] } },
{ "type": "Feature", "properties": { "monument_id": 190, "monument_name": "Comptroller", "parkprop": "N", "parkname": "unknown", "Location": "MUNICIPAL BDLG.; Chambers and Center Streets" }, "geometry": null },
{ "type": "Feature", "properties": { "monument_id": 191, "monument_name": "Samuel Finley Breese Morse", "parkprop": "Y", "parkname": "Central Park", "Location": "E. 72nd St. and 5th Avenue entrance (formerly in the Mall)" }, "geometry": { "type": "Point", "coordinates": [ -73.967043600000011, 40.772461500000013 ] } },
{ "type": "Feature", "properties": { "monument_id": 192, "monument_name": "Women's Rights Pioneers Monument", "parkprop": "Y", "parkname": "unknown", "Location": "Central Park Mall (at about 68th Street)" }, "geometry": null },
{ "type": "Feature", "properties": { "monument_id": 193, "monument_name": "Seventy Second Street Playground", "parkprop": "Y", "parkname": "Central Park", "Location": "72nd Street and 5th Avenue" }, "geometry": { "type": "Point", "coordinates": [ -73.967043600000011, 40.772461500000013 ] } },
{ "type": "Feature", "properties": { "monument_id": 194, "monument_name": "Still Hunt", "parkprop": "Y", "parkname": "Central Park", "Location": "East Drive at 76th Street,  overlooking road" }, "geometry": { "type": "Point", "coordinates": [ -73.9655834, 40.7825547 ] } },
{ "type": "Feature", "properties": { "monument_id": 195, "monument_name": "Simon Bolivar Monument", "parkprop": "Y", "parkname": "Central Park", "Location": "Central Park South and Avenue of the Americas" }, "geometry": { "type": "Point", "coordinates": [ -73.9762371, 40.765741899999988 ] } },
{ "type": "Feature", "properties": { "monument_id": 196, "monument_name": "Webb, Alexander Stewart", "parkprop": "N", "parkname": "unknown", "Location": "CITY COLLEGE; Convent Ave. at 138th to 140th Streets" }, "geometry": { "type": "Point", "coordinates": [ -73.9492724, 40.8200471 ] } },
{ "type": "Feature", "properties": { "monument_id": 197, "monument_name": "Elections", "parkprop": "N", "parkname": "unknown", "Location": "MUNICIPAL BUILDING; Chambers Street and Center Street" }, "geometry": { "type": "Point", "coordinates": [ -74.0036107, 40.7131386 ] } },
{ "type": "Feature", "properties": { "monument_id": 198, "monument_name": "Drinking Fountain", "parkprop": "Y", "parkname": "Central Park", "Location": "West Drive, 92nd Street, near tennis house" }, "geometry": { "type": "Point", "coordinates": [ -73.9655834, 40.7825547 ] } },
{ "type": "Feature", "properties": { "monument_id": 199, "monument_name": "Doris C. Freedman Plaza Plaque", "parkprop": "Y", "parkname": "Central Park", "Location": "Scholars Gate" }, "geometry": { "type": "Point", "coordinates": [ -73.9655834, 40.7825547 ] } },
{ "type": "Feature", "properties": { "monument_id": 200, "monument_name": "William T. Stead Memorial", "parkprop": "Y", "parkname": "Central Park", "Location": "Fifth Avenue at 91st Street, against park wall" }, "geometry": { "type": "Point", "coordinates": [ -73.958096700000013, 40.7847257 ] } },
{ "type": "Feature", "properties": { "monument_id": 201, "monument_name": "Naturalists Gate", "parkprop": "Y", "parkname": "Central Park", "Location": "Central Park West at West 77th St." }, "geometry": { "type": "Point", "coordinates": [ -73.9736052, 40.7794981 ] } },
{ "type": "Feature", "properties": { "monument_id": 202, "monument_name": "Giuseppe Mazzini", "parkprop": "Y", "parkname": "Central Park", "Location": "West Drive opposite 62nd St." }, "geometry": { "type": "Point", "coordinates": [ -73.9655834, 40.7825547 ] } },
{ "type": "Feature", "properties": { "monument_id": 203, "monument_name": "public school #114", "parkprop": "N", "parkname": "unknown", "Location": "OAK, OLIVER AND JAMES ST." }, "geometry": null },
{ "type": "Feature", "properties": { "monument_id": 204, "monument_name": "Wood, James Rushmore", "parkprop": "N", "parkname": "unknown", "Location": "BELLEVUE HOSPITAL; foot of e. 26th st." }, "geometry": { "type": "Point", "coordinates": [ -73.9762044, 40.7396865 ] } },
{ "type": "Feature", "properties": { "monument_id": 205, "monument_name": "summer", "parkprop": "N", "parkname": "unknown", "Location": "APPELLATE COURT-MAD. AVE. FAC.; madison ave at 25th st." }, "geometry": { "type": "Point", "coordinates": [ -90.1366416, 38.7074271 ] } },
{ "type": "Feature", "properties": { "monument_id": 206, "monument_name": "Tigress and Cubs", "parkprop": "Y", "parkname": "Central Park", "Location": "Central Park Zoo;  intelligence garden (see memo)" }, "geometry": { "type": "Point", "coordinates": [ -73.9655834, 40.7825547 ] } },
{ "type": "Feature", "properties": { "monument_id": 207, "monument_name": "Literary Walk Restoration Marker", "parkprop": "Y", "parkname": "Central Park", "Location": "South end of Mall" }, "geometry": { "type": "Point", "coordinates": [ -73.9655834, 40.7825547 ] } },
{ "type": "Feature", "properties": { "monument_id": 208, "monument_name": "Fred Lebow", "parkprop": "Y", "parkname": "unknown", "Location": "East Drive near 90th Street (east of reservoir)" }, "geometry": null },
{ "type": "Feature", "properties": { "monument_id": 209, "monument_name": "Frederick Douglass Memorial", "parkprop": "Y", "parkname": "unknown", "Location": "Central Park North and Frederick Douglass Boulevard" }, "geometry": { "type": "Point", "coordinates": [ -73.9578638, 40.8005207 ] } },
{ "type": "Feature", "properties": { "monument_id": 210, "monument_name": "jefferson, thomas", "parkprop": "N", "parkname": "unknown", "Location": "CCNY - HALL OF PATRIOTS; convent ave at 139th st" }, "geometry": { "type": "Point", "coordinates": [ -73.9492724, 40.8200471 ] } },
{ "type": "Feature", "properties": { "monument_id": 211, "monument_name": "Johann Christoph Friedrich Von Schiller", "parkprop": "Y", "parkname": "Central Park", "Location": "North end of mall" }, "geometry": { "type": "Point", "coordinates": [ -73.9655834, 40.7825547 ] } },
{ "type": "Feature", "properties": { "monument_id": 212, "monument_name": "Bolivar Plaza Plaque", "parkprop": "Y", "parkname": "Central Park", "Location": "Bolivar Plaza wall; Central Park South and 6th Avenue" }, "geometry": { "type": "Point", "coordinates": [ -73.9758759, 40.7657215 ] } },
{ "type": "Feature", "properties": { "monument_id": 213, "monument_name": "Macaque and Orang-outang", "parkprop": "O", "parkname": "Central Park", "Location": "Central Park Zoo; School, south end of west façade" }, "geometry": { "type": "Point", "coordinates": [ -73.9719906, 40.7677061 ] } },
{ "type": "Feature", "properties": { "monument_id": 214, "monument_name": "Cormorants", "parkprop": "O", "parkname": "Central Park", "Location": "Central Park Zoo; Gallery, south end of west façade" }, "geometry": { "type": "Point", "coordinates": [ -73.9655834, 40.7825547 ] } },
{ "type": "Feature", "properties": { "monument_id": 215, "monument_name": "Michael Friedsam Memorial", "parkprop": "Y", "parkname": "Central Park", "Location": "Carousel Building" }, "geometry": { "type": "Point", "coordinates": [ -73.9655834, 40.7825547 ] } },
{ "type": "Feature", "properties": { "monument_id": 216, "monument_name": "Lions", "parkprop": "O", "parkname": "Central Park", "Location": "Central ParkZoo; Willard T.C. Johnson Penguin Building, northeast façade" }, "geometry": { "type": "Point", "coordinates": [ -73.9719906, 40.7677061 ] } },
{ "type": "Feature", "properties": { "monument_id": 217, "monument_name": "Charles B. Stover", "parkprop": "Y", "parkname": "Central Park", "Location": "Shakespeare Garden; top of \"rock of ages\"" }, "geometry": { "type": "Point", "coordinates": [ -73.9655834, 40.7825547 ] } },
{ "type": "Feature", "properties": { "monument_id": 218, "monument_name": "Group of Bears", "parkprop": "Y", "parkname": "Central Park", "Location": "Pat Hoffman Friedman Playground, 5th Avenue and 79th Street" }, "geometry": { "type": "Point", "coordinates": [ -73.9639789, 40.7776573 ] } },
{ "type": "Feature", "properties": { "monument_id": 219, "monument_name": "Rudolph B. Taylor Plaque", "parkprop": "Y", "parkname": "Central Park", "Location": "Conservatory Garden, 105th St and 5th Avenue" }, "geometry": { "type": "Point", "coordinates": [ -73.9524588, 40.7936928 ] } },
{ "type": "Feature", "properties": { "monument_id": 220, "monument_name": "Rocky Mountain Sheep", "parkprop": "O", "parkname": "Central Park", "Location": "Central Park Zoo; Gallery, center of east façade" }, "geometry": { "type": "Point", "coordinates": [ -73.9655834, 40.7825547 ] } },
{ "type": "Feature", "properties": { "monument_id": 221, "monument_name": "Sergeant Joyce Kilmer", "parkprop": "Y", "parkname": "Central Park", "Location": "West mall near 67th Street" }, "geometry": { "type": "Point", "coordinates": [ -73.9655834, 40.7825547 ] } },
{ "type": "Feature", "properties": { "monument_id": 222, "monument_name": "Chidwick, Rt. Rev. Msgr. John P.", "parkprop": "Y", "parkname": "unknown", "Location": "Maine Monument, Columbus Circle, 59th Street and 8th Avenue" }, "geometry": { "type": "Point", "coordinates": [ -73.9810108, 40.7682489 ] } },
{ "type": "Feature", "properties": { "monument_id": 223, "monument_name": "Dancing Goat", "parkprop": "Y", "parkname": "Central Park", "Location": "Central Park Wildlife Center; niche at east end of southern exterior wall" }, "geometry": { "type": "Point", "coordinates": [ -73.9655834, 40.7825547 ] } },
{ "type": "Feature", "properties": { "monument_id": 224, "monument_name": "Tigers", "parkprop": "O", "parkname": "Central Park", "Location": "Central Park Zoo; Central Park Wildlife Center, center of west façade" }, "geometry": { "type": "Point", "coordinates": [ -73.9719906, 40.7677061 ] } },
{ "type": "Feature", "properties": { "monument_id": 225, "monument_name": "Chimpanzee", "parkprop": "O", "parkname": "Central Park", "Location": "Central Park Zoo; Zoo School, north end of east façade" }, "geometry": { "type": "Point", "coordinates": [ -73.9719906, 40.7677061 ] } },
{ "type": "Feature", "properties": { "monument_id": 226, "monument_name": "Honey Bear", "parkprop": "Y", "parkname": "Central Park", "Location": "Central Park Zoo; in exterior wall niche at northeast corner of zoo near Delcorte Clock" }, "geometry": { "type": "Point", "coordinates": [ -73.9719906, 40.7677061 ] } },
{ "type": "Feature", "properties": { "monument_id": 227, "monument_name": "County Court House", "parkprop": "N", "parkname": "unknown", "Location": "COUNTY COURT HOUSE; Foley Square, Centre Street between Pearl and Worth Streets" }, "geometry": { "type": "Point", "coordinates": [ -74.0029927, 40.7143512 ] } },
{ "type": "Feature", "properties": { "monument_id": 228, "monument_name": "Ponies", "parkprop": "O", "parkname": "Central Park", "Location": "Central Park Zoo; Central Park Wildlife Center, west side of south façade" }, "geometry": { "type": "Point", "coordinates": [ -73.9719906, 40.7677061 ] } },
{ "type": "Feature", "properties": { "monument_id": 229, "monument_name": "Printing", "parkprop": "N", "parkname": "unknown", "Location": "Surrogate's Court/Hall of Records, 31 Chambers Street, Reade Street elevation, chief cornice, third from left" }, "geometry": { "type": "Point", "coordinates": [ -74.0043655, 40.7134361 ] } },
{ "type": "Feature", "properties": { "monument_id": 230, "monument_name": "progress", "parkprop": "N", "parkname": "unknown", "Location": "MUNICIPAL BLDG, CHAMB. ARCH; chambers and centre st." }, "geometry": null },
{ "type": "Feature", "properties": { "monument_id": 231, "monument_name": "Alexander Hamilton", "parkprop": "Y", "parkname": "Central Park", "Location": "East Drive, opposite 83rd Street" }, "geometry": { "type": "Point", "coordinates": [ -73.9655834, 40.7825547 ] } },
{ "type": "Feature", "properties": { "monument_id": 232, "monument_name": "Navigation", "parkprop": "N", "parkname": "unknown", "Location": "Surrogate's Court/Hall of Records, 31 Chambers Street, Centre Street façade, chief cornice, fifth from left" }, "geometry": { "type": "Point", "coordinates": [ -74.0043655, 40.7134361 ] } },
{ "type": "Feature", "properties": { "monument_id": 233, "monument_name": "lycurgus", "parkprop": "N", "parkname": "unknown", "Location": "APPELLATE COURT BUILDING; madison ave at 25th st" }, "geometry": { "type": "Point", "coordinates": [ -90.1366416, 38.7074271 ] } },
{ "type": "Feature", "properties": { "monument_id": 234, "monument_name": "Gorilla", "parkprop": "O", "parkname": "Central Park", "Location": "Central Park Zoo; School, south end of east façade" }, "geometry": { "type": "Point", "coordinates": [ -73.9719906, 40.7677061 ] } },
{ "type": "Feature", "properties": { "monument_id": 235, "monument_name": "Victor Herbert", "parkprop": "Y", "parkname": "Central Park", "Location": "Mall, across from Bandshell" }, "geometry": { "type": "Point", "coordinates": [ -73.9655834, 40.7825547 ] } },
{ "type": "Feature", "properties": { "monument_id": 236, "monument_name": "Sir Walter Scott", "parkprop": "Y", "parkname": "Central Park", "Location": "Mall" }, "geometry": { "type": "Point", "coordinates": [ -73.9655834, 40.7825547 ] } },
{ "type": "Feature", "properties": { "monument_id": 237, "monument_name": "Bethesda Fountain", "parkprop": "Y", "parkname": "Central Park", "Location": "Bethesda Terrace" }, "geometry": { "type": "Point", "coordinates": [ -73.9709657, 40.7739528 ] } },
{ "type": "Feature", "properties": { "monument_id": 238, "monument_name": "Seal of the State of New York (aka Excelsior)", "parkprop": "Y", "parkname": "Central Park", "Location": "Under exterior staircase, front entrance, the Arsenal" }, "geometry": { "type": "Point", "coordinates": [ -73.9655834, 40.7825547 ] } },
{ "type": "Feature", "properties": { "monument_id": 239, "monument_name": "Thomas Moore", "parkprop": "Y", "parkname": "Central Park", "Location": "Poet's Corner, East Driv, near 60th Street" }, "geometry": { "type": "Point", "coordinates": [ -73.9655834, 40.7825547 ] } },
{ "type": "Feature", "properties": { "monument_id": 240, "monument_name": "Library, New York Public", "parkprop": "N", "parkname": "unknown", "Location": "unknown" }, "geometry": null },
{ "type": "Feature", "properties": { "monument_id": 241, "monument_name": "Imagine", "parkprop": "Y", "parkname": "Central Park", "Location": "Strawberry Fields, Central Park West and 72nd Street" }, "geometry": { "type": "Point", "coordinates": [ -73.9752076, 40.7757544 ] } },
{ "type": "Feature", "properties": { "monument_id": 242, "monument_name": "Study", "parkprop": "N", "parkname": "unknown", "Location": "Surrogate's Court/Hall of Records, 31 Chambers Street, Reade Street elevation, beside center window in attic" }, "geometry": { "type": "Point", "coordinates": [ -74.0043655, 40.7134361 ] } },
{ "type": "Feature", "properties": { "monument_id": 243, "monument_name": "Alan Lomax Tablet", "parkprop": "Y", "parkname": "unknown", "Location": "Carousel" }, "geometry": null },
{ "type": "Feature", "properties": { "monument_id": 244, "monument_name": "William Shakespeare", "parkprop": "Y", "parkname": "Central Park", "Location": "Literary Mall" }, "geometry": { "type": "Point", "coordinates": [ -73.9655834, 40.7825547 ] } },
{ "type": "Feature", "properties": { "monument_id": 245, "monument_name": "Alice Hochstader & Edward A. Kerbs", "parkprop": "Y", "parkname": "Central Park", "Location": "East 72nd Street, Inventors Gatepost" }, "geometry": { "type": "Point", "coordinates": [ -73.9655834, 40.7825547 ] } },
{ "type": "Feature", "properties": { "monument_id": 246, "monument_name": "goldie, sarah", "parkprop": "N", "parkname": "unknown", "Location": "82ND ST., EAST OF 2ND AVE." }, "geometry": null },
{ "type": "Feature", "properties": { "monument_id": 247, "monument_name": "Vanderbilt Gates", "parkprop": "Y", "parkname": "Central Park", "Location": "Conservatory Garden; 5th Avenue and 105th Street" }, "geometry": { "type": "Point", "coordinates": [ -73.9524588, 40.7936928 ] } },
{ "type": "Feature", "properties": { "monument_id": 248, "monument_name": "Lombard Lamp", "parkprop": "Y", "parkname": "Central Park", "Location": "East Drive at 60th Street" }, "geometry": { "type": "Point", "coordinates": [ -73.9655834, 40.7825547 ] } },
{ "type": "Feature", "properties": { "monument_id": 249, "monument_name": "Irving and Estelle Levy Playground Gate", "parkprop": "Y", "parkname": "Central Park", "Location": "Pat Hoffman Friedman Playground, 5th Avenue and 79th Street" }, "geometry": { "type": "Point", "coordinates": [ -73.9639789, 40.7776573 ] } },
{ "type": "Feature", "properties": { "monument_id": 250, "monument_name": "Wallach Walk Paver", "parkprop": "O", "parkname": "Central Park", "Location": "Central Park Zoo; north of Tisch Children's Zoo, east of Balto" }, "geometry": { "type": "Point", "coordinates": [ -73.9655834, 40.7825547 ] } },
{ "type": "Feature", "properties": { "monument_id": 251, "monument_name": "John Purroy Mitchel", "parkprop": "Y", "parkname": "Central Park", "Location": "Fifth Avenue at 90th Street" }, "geometry": { "type": "Point", "coordinates": [ -73.9585675, 40.7840819 ] } },
{ "type": "Feature", "properties": { "monument_id": 252, "monument_name": "The Indian Hunter", "parkprop": "Y", "parkname": "Central Park", "Location": "South end of the Mall" }, "geometry": { "type": "Point", "coordinates": [ -73.9655834, 40.7825547 ] } },
{ "type": "Feature", "properties": { "monument_id": 253, "monument_name": "Arsenal Mural", "parkprop": "Y", "parkname": "Central Park", "Location": "Arsenal lobby" }, "geometry": { "type": "Point", "coordinates": [ -73.9655834, 40.7825547 ] } },
{ "type": "Feature", "properties": { "monument_id": 254, "monument_name": "Baboon and Mandrill", "parkprop": "O", "parkname": "Central Park", "Location": "Central Park Zoo; School building, west end of south façade" }, "geometry": { "type": "Point", "coordinates": [ -73.9719906, 40.7677061 ] } },
{ "type": "Feature", "properties": { "monument_id": 255, "monument_name": "Deer", "parkprop": "O", "parkname": "Central Park", "Location": "Central Park Zoo; Central Park Wildlife Center; east side of south façade" }, "geometry": { "type": "Point", "coordinates": [ -73.9719906, 40.7677061 ] } },
{ "type": "Feature", "properties": { "monument_id": 256, "monument_name": "Columbus Monument", "parkprop": "Y", "parkname": "Central Park", "Location": "Columbus Circle" }, "geometry": { "type": "Point", "coordinates": [ -73.9815219, 40.767848 ] } },
{ "type": "Feature", "properties": { "monument_id": 257, "monument_name": "Romeo and Juliet", "parkprop": "Y", "parkname": "unknown", "Location": "Near entrance of Delacorte Theater" }, "geometry": { "type": "Point", "coordinates": [ -73.9687942, 40.7802033 ] } },
{ "type": "Feature", "properties": { "monument_id": 258, "monument_name": "New York Custom House", "parkprop": "N", "parkname": "unknown", "Location": "BOWLING GREEN" }, "geometry": { "type": "Point", "coordinates": [ -86.4808043, 36.9685219 ] } },
{ "type": "Feature", "properties": { "monument_id": 259, "monument_name": "American Museum of Natural History Tablet", "parkprop": "Y", "parkname": "Central Park", "Location": "The Arsenal Gallery" }, "geometry": { "type": "Point", "coordinates": [ 23.1664937, 53.1304264 ] } },
{ "type": "Feature", "properties": { "monument_id": 260, "monument_name": "Marabou", "parkprop": "O", "parkname": "Central Park", "Location": "Central Park Zoo; Gallery, west end of north façade" }, "geometry": { "type": "Point", "coordinates": [ -73.9655834, 40.7825547 ] } },
{ "type": "Feature", "properties": { "monument_id": 261, "monument_name": "Industrial Art", "parkprop": "N", "parkname": "unknown", "Location": "Surrogate's Court/Hall of Records, 31 Chambers Street, Centre Street façade, chief cornice, sixth from left" }, "geometry": { "type": "Point", "coordinates": [ -74.0043655, 40.7134361 ] } },
{ "type": "Feature", "properties": { "monument_id": 262, "monument_name": "The Tempest (Prospero and Miranda)", "parkprop": "Y", "parkname": "Central Park", "Location": "Delacorte Theatre" }, "geometry": { "type": "Point", "coordinates": [ -73.9687942, 40.7802033 ] } },
{ "type": "Feature", "properties": { "monument_id": 263, "monument_name": "Mother Goose", "parkprop": "Y", "parkname": "Central Park", "Location": "Rumsey Playground, E. Drive at 72nd St." }, "geometry": { "type": "Point", "coordinates": [ -114.0436938, 51.0407958 ] } },
{ "type": "Feature", "properties": { "monument_id": 264, "monument_name": "Snow Babies", "parkprop": "Y", "parkname": "Central Park", "Location": "Entrance to Mary Harriman Rumsey Playground, East Drive at 72nd Street." }, "geometry": { "type": "Point", "coordinates": [ -73.9655834, 40.7825547 ] } },
{ "type": "Feature", "properties": { "monument_id": 265, "monument_name": "Civic Duty", "parkprop": "N", "parkname": "unknown", "Location": "MUNICIPAL BUILDING; Chambers and Center Streets" }, "geometry": { "type": "Point", "coordinates": [ -74.0036107, 40.7131386 ] } },
{ "type": "Feature", "properties": { "monument_id": 266, "monument_name": "public school #57", "parkprop": "N", "parkname": "unknown", "Location": "unknown" }, "geometry": null },
{ "type": "Feature", "properties": { "monument_id": 267, "monument_name": "public school #2", "parkprop": "N", "parkname": "unknown", "Location": "unknown" }, "geometry": null },
{ "type": "Feature", "properties": { "monument_id": 268, "monument_name": "Balto", "parkprop": "Y", "parkname": "Central Park", "Location": "The Dene, west of 5th Avenue and East 67th Street" }, "geometry": { "type": "Point", "coordinates": [ -73.9698167, 40.7699501 ] } },
{ "type": "Feature", "properties": { "monument_id": 269, "monument_name": "Swans", "parkprop": "O", "parkname": "Central Park", "Location": "Central Park Zoo; Gallery, north end of east façade" }, "geometry": { "type": "Point", "coordinates": [ -73.9655834, 40.7825547 ] } },
{ "type": "Feature", "properties": { "monument_id": 270, "monument_name": "Loeb Boathouse Plaque", "parkprop": "Y", "parkname": "Central Park", "Location": "Exterior wall of Loeb Boathouse, opposite The Rowers" }, "geometry": { "type": "Point", "coordinates": [ -73.9655834, 40.7825547 ] } },
{ "type": "Feature", "properties": { "monument_id": 271, "monument_name": "Arthur Brisbane Monument", "parkprop": "Y", "parkname": "Central Park", "Location": "Fifth Avenue at 101st Street" }, "geometry": { "type": "Point", "coordinates": [ -73.953439, 40.7911017 ] } },
{ "type": "Feature", "properties": { "monument_id": 272, "monument_name": "Olmsted Tablets", "parkprop": "Y", "parkname": "Central Park", "Location": "South end of mall, Park Drive" }, "geometry": { "type": "Point", "coordinates": [ -73.9655834, 40.7825547 ] } },
{ "type": "Feature", "properties": { "monument_id": 273, "monument_name": "Dr. James Marion Sims", "parkprop": "N", "parkname": "Central Park", "Location": "Green-Wood Cemetery, Dale and Cypress Avenues" }, "geometry": { "type": "Point", "coordinates": [ -73.994767600000017, 40.6580754 ] } },
{ "type": "Feature", "properties": { "monument_id": 274, "monument_name": "Executive Power", "parkprop": "N", "parkname": "unknown", "Location": "MUNICIPAL BUILDING; Chambers and Center Streets" }, "geometry": { "type": "Point", "coordinates": [ -74.0036107, 40.7131386 ] } },
{ "type": "Feature", "properties": { "monument_id": 275, "monument_name": "Seventh Regiment Memorial", "parkprop": "Y", "parkname": "Central Park", "Location": "West Drive opposite 67th St." }, "geometry": { "type": "Point", "coordinates": [ -73.9655834, 40.7825547 ] } },
{ "type": "Feature", "properties": { "monument_id": 276, "monument_name": "Autumn", "parkprop": "N", "parkname": "unknown", "Location": "Surrogate's Court/Hall of Records, 31 Chambers Street, Chambers Street façade, beside center window in attic" }, "geometry": { "type": "Point", "coordinates": [ -74.0043655, 40.7134361 ] } },
{ "type": "Feature", "properties": { "monument_id": 277, "monument_name": "Louis Fitzgerald", "parkprop": "N", "parkname": "unknown", "Location": "71st Regiment Armory; Park Avenue at 33rd Street" }, "geometry": { "type": "Point", "coordinates": [ -73.9393927, 40.804326 ] } },
{ "type": "Feature", "properties": { "monument_id": 278, "monument_name": "Delacorte Geyser", "parkprop": "N", "parkname": "unknown", "Location": "anchored at southern tip of Roosevelt Island" }, "geometry": { "type": "Point", "coordinates": [ -73.9509934, 40.7605031 ] } },
{ "type": "Feature", "properties": { "monument_id": 279, "monument_name": "Untermyer Fountain", "parkprop": "Y", "parkname": "Central Park", "Location": "Conservatory Garden, 105th St. and Fifth Avenue" }, "geometry": { "type": "Point", "coordinates": [ -73.9524588, 40.7936928 ] } },
{ "type": "Feature", "properties": { "monument_id": 280, "monument_name": "Sheriff", "parkprop": "N", "parkname": "unknown", "Location": "MUNICIPAL BUILDING; chambers and centre st." }, "geometry": null },
{ "type": "Feature", "properties": { "monument_id": 281, "monument_name": "Navy Walk Tablet", "parkprop": "Y", "parkname": "Central Park", "Location": "West walk, fountain esplanade" }, "geometry": { "type": "Point", "coordinates": [ 88.3518608, 22.5652757 ] } },
{ "type": "Feature", "properties": { "monument_id": 282, "monument_name": "Police Headquarters Honor Roll", "parkprop": "N", "parkname": "unknown", "Location": "CENTRE AND LAFAYETTE ST." }, "geometry": null },
{ "type": "Feature", "properties": { "monument_id": 283, "monument_name": "Sundial", "parkprop": "Y", "parkname": "Central Park", "Location": "CENTRAL PARK; Shakespeare Gardens" }, "geometry": { "type": "Point", "coordinates": [ -73.9698821, 40.7797535 ] } },
{ "type": "Feature", "properties": { "monument_id": 284, "monument_name": "Loeb Memorial Fountain", "parkprop": "Y", "parkname": "Central Park", "Location": "Fifth Avenue at East 76th; Levin Playground" }, "geometry": { "type": "Point", "coordinates": [ -73.9652164, 40.7757247 ] } },
{ "type": "Feature", "properties": { "monument_id": 285, "monument_name": "Naumburg Bandshell", "parkprop": "Y", "parkname": "Central Park", "Location": "North end of Mall" }, "geometry": { "type": "Point", "coordinates": [ -73.9655834, 40.7825547 ] } },
{ "type": "Feature", "properties": { "monument_id": 286, "monument_name": "Commerce", "parkprop": "N", "parkname": "unknown", "Location": "Surrogate's Court/Hall of Records, 31 Chambers Street, Centre Street façade, chief cornice, fourth from left" }, "geometry": { "type": "Point", "coordinates": [ -74.0043655, 40.7134361 ] } },
{ "type": "Feature", "properties": { "monument_id": 287, "monument_name": "Richard Morris Hunt Memorial", "parkprop": "Y", "parkname": "Central Park", "Location": "Perimeter wall, Fifth Avenue at 70th Street" }, "geometry": { "type": "Point", "coordinates": [ -73.9679972, 40.7711497 ] } },
{ "type": "Feature", "properties": { "monument_id": 288, "monument_name": "William Tecumseh Sherman", "parkprop": "O", "parkname": "Riverside Park", "Location": "GRANTS TOMB, riverside drive at 122nd st" }, "geometry": { "type": "Point", "coordinates": [ -73.9630671, 40.8134045 ] } },
{ "type": "Feature", "properties": { "monument_id": 289, "monument_name": "Henry Clay", "parkprop": "N", "parkname": "unknown", "Location": "CITY HALL; Governor's Room" }, "geometry": null },
{ "type": "Feature", "properties": { "monument_id": 290, "monument_name": "Cherry Hill Fountain", "parkprop": "Y", "parkname": "Central Park", "Location": "located west of Bethesda Terrace near the 72nd Street cross drive; Cherry Hill Concourse" }, "geometry": { "type": "Point", "coordinates": [ -73.9709657, 40.7739528 ] } },
{ "type": "Feature", "properties": { "monument_id": 291, "monument_name": "Eagles and Vultures", "parkprop": "O", "parkname": "Central Park", "Location": "Central Park Zoo; Gallery, north façade above entrance" }, "geometry": { "type": "Point", "coordinates": [ -73.9655834, 40.7825547 ] } },
{ "type": "Feature", "properties": { "monument_id": 292, "monument_name": "Andrew Haswell Green", "parkprop": "Y", "parkname": "Central Park", "Location": "East Drive, opposite 104th Street" }, "geometry": { "type": "Point", "coordinates": [ -73.9655834, 40.7825547 ] } },
{ "type": "Feature", "properties": { "monument_id": 293, "monument_name": "Hans Christian Andersen", "parkprop": "Y", "parkname": "Central Park", "Location": "On raised plaza west of Conservatory Lake, East 74th Street and East Drive" }, "geometry": { "type": "Point", "coordinates": [ -73.9655834, 40.7825547 ] } },
{ "type": "Feature", "properties": { "monument_id": 294, "monument_name": "Cunningham, Mary", "parkprop": "N", "parkname": "unknown", "Location": "unknown" }, "geometry": null },
{ "type": "Feature", "properties": { "monument_id": 295, "monument_name": "Wollman Portrait", "parkprop": "Y", "parkname": "unknown", "Location": "Central Park, South of Dairy (E63rd and 6th Ave equivalent); Wollman Memorial Skating Rink, on wall adjacent to concession" }, "geometry": { "type": "Point", "coordinates": [ 30.9503435, -17.3726925 ] } },
{ "type": "Feature", "properties": { "monument_id": 296, "monument_name": "Childhood", "parkprop": "N", "parkname": "unknown", "Location": "Surrogate's Court/Hall of Records, 31 Chambers Street, Chambers Street façade, beside center window in attic" }, "geometry": { "type": "Point", "coordinates": [ -74.0043655, 40.7134361 ] } },
{ "type": "Feature", "properties": { "monument_id": 297, "monument_name": "Macpherson, James Birdseye", "parkprop": "O", "parkname": "Riverside Park", "Location": "GRANTS TOMB, riverside drive at 122nd st." }, "geometry": { "type": "Point", "coordinates": [ -73.9630671, 40.8134045 ] } },
{ "type": "Feature", "properties": { "monument_id": 298, "monument_name": "Isham", "parkprop": "N", "parkname": "Central Park", "Location": "Metropolitan Museum, south wall; 5th Avenue and 82nd St" }, "geometry": { "type": "Point", "coordinates": [ -73.963244, 40.7794366 ] } },
{ "type": "Feature", "properties": { "monument_id": 299, "monument_name": "prudence", "parkprop": "N", "parkname": "unknown", "Location": "MUNICIPAL BLDG, CHAMBERS ARCH; chambers and centre Streets" }, "geometry": null },
{ "type": "Feature", "properties": { "monument_id": 300, "monument_name": "Corrections", "parkprop": "N", "parkname": "unknown", "Location": "MUNICIPAL BUILDING; Center and Chambers Streets" }, "geometry": { "type": "Point", "coordinates": [ -74.0036107, 40.7131386 ] } },
{ "type": "Feature", "properties": { "monument_id": 301, "monument_name": "James Jackson Tombstone", "parkprop": "Y", "parkname": "unknown", "Location": "unknown" }, "geometry": null },
{ "type": "Feature", "properties": { "monument_id": 302, "monument_name": "Cockatoos and Ara", "parkprop": "O", "parkname": "Central Park", "Location": "Central Park Zoo; Gallery, west end of south façade" }, "geometry": { "type": "Point", "coordinates": [ -73.9655834, 40.7825547 ] } },
{ "type": "Feature", "properties": { "monument_id": 303, "monument_name": "U.S.S. Maine National Monument", "parkprop": "Y", "parkname": "Central Park", "Location": "59th Street and Central Park West, Columbus Circle" }, "geometry": { "type": "Point", "coordinates": [ -73.9818957, 40.7680797 ] } },
{ "type": "Feature", "properties": { "monument_id": 304, "monument_name": "justice", "parkprop": "N", "parkname": "unknown", "Location": "CRIMINAL COURTS BLDG; franklin and centre st" }, "geometry": null },
{ "type": "Feature", "properties": { "monument_id": 305, "monument_name": "William F. Havemeyer", "parkprop": "O", "parkname": "City Hall Park", "Location": "City Hall; Governors Room" }, "geometry": { "type": "Point", "coordinates": [ -74.0065164, 40.7124142 ] } },
{ "type": "Feature", "properties": { "monument_id": 306, "monument_name": "George Henry Thomas", "parkprop": "O", "parkname": "Riverside Park", "Location": "GRANT'S TOMB; Riverside Drive at 122nd St." }, "geometry": { "type": "Point", "coordinates": [ -73.9630671, 40.8134045 ] } },
{ "type": "Feature", "properties": { "monument_id": 307, "monument_name": "Alice in Wonderland", "parkprop": "Y", "parkname": "Central Park", "Location": "76th Street and 5th Avenue, near Conservatory Lake" }, "geometry": { "type": "Point", "coordinates": [ -73.9655834, 40.7825547 ] } },
{ "type": "Feature", "properties": { "monument_id": 308, "monument_name": "James A. Sherry Plaque", "parkprop": "Y", "parkname": "Central Park", "Location": "Arsenal Gallery" }, "geometry": { "type": "Point", "coordinates": [ -73.9713659, 40.7676682 ] } },
{ "type": "Feature", "properties": { "monument_id": 309, "monument_name": "Martin Birdbath", "parkprop": "Y", "parkname": "Central Park", "Location": "Cafeteria pergola, formerly the Lion House" }, "geometry": { "type": "Point", "coordinates": [ -73.9655834, 40.7825547 ] } },
{ "type": "Feature", "properties": { "monument_id": 310, "monument_name": "King Wladyslaw Jagiello", "parkprop": "Y", "parkname": "Central Park", "Location": "unknown" }, "geometry": { "type": "Point", "coordinates": [ -73.9655834, 40.7825547 ] } },
{ "type": "Feature", "properties": { "monument_id": 311, "monument_name": "San Martin Tablet", "parkprop": "Y", "parkname": "Central Park", "Location": "Bolivar Plaza; 6th Avenue and 59th Street" }, "geometry": { "type": "Point", "coordinates": [ -73.9762371, 40.765741899999988 ] } },
{ "type": "Feature", "properties": { "monument_id": 312, "monument_name": "Clinton L. Bagg", "parkprop": "N", "parkname": "unknown", "Location": "METROPOLITAN HOSPITAL, ROTUNDA; welfare island" }, "geometry": { "type": "Point", "coordinates": [ -73.9509934, 40.7605031 ] } },
{ "type": "Feature", "properties": { "monument_id": 313, "monument_name": "Cupids with Garland", "parkprop": "N", "parkname": "unknown", "Location": "MUNICIPAL BUILDING; Chambers and Center Streets/ arch" }, "geometry": { "type": "Point", "coordinates": [ -74.0036107, 40.7131386 ] } },
{ "type": "Feature", "properties": { "monument_id": 314, "monument_name": "Richard Saunders Scott", "parkprop": "Y", "parkname": "Central Park", "Location": "Conservatory Lake; 100 feet north of Kerbs Boathouse" }, "geometry": { "type": "Point", "coordinates": [ -73.9655834, 40.7825547 ] } },
{ "type": "Feature", "properties": { "monument_id": 315, "monument_name": "Mary Harriman Rumsey", "parkprop": "Y", "parkname": "Central Park", "Location": "Rumsey Playground; E. Drive at 72nd St." }, "geometry": { "type": "Point", "coordinates": [ -114.0436938, 51.0407958 ] } },
{ "type": "Feature", "properties": { "monument_id": 316, "monument_name": "Dewitt Clinton", "parkprop": "N", "parkname": "unknown", "Location": "Museum of the City of New York; Fifth Avenue at 103rd & 104th Streets" }, "geometry": { "type": "Point", "coordinates": [ -73.9519089, 40.7924939 ] } },
{ "type": "Feature", "properties": { "monument_id": 317, "monument_name": "poe, edgar allan", "parkprop": "N", "parkname": "unknown", "Location": "CCNY HALL OF PATRIOTS; convent Avenue and 137th st." }, "geometry": { "type": "Point", "coordinates": [ -73.9487727, 40.8211747 ] } },
{ "type": "Feature", "properties": { "monument_id": 318, "monument_name": "Robert Moses Memorial", "parkprop": "Y", "parkname": "Central Park", "Location": "The Arsenal; 3rd floor conference room" }, "geometry": { "type": "Point", "coordinates": [ -73.9655834, 40.7825547 ] } },
{ "type": "Feature", "properties": { "monument_id": 319, "monument_name": "new york training school for teachers", "parkprop": "N", "parkname": "unknown", "Location": "unknown" }, "geometry": null },
{ "type": "Feature", "properties": { "monument_id": 320, "monument_name": "Overseas Service League Flagstaff", "parkprop": "Y", "parkname": "Central Park", "Location": "Fifth Avenue, near 69th and 70th Streets" }, "geometry": { "type": "Point", "coordinates": [ -73.9655834, 40.7825547 ] } },
{ "type": "Feature", "properties": { "monument_id": 321, "monument_name": "Alexander von Humboldt", "parkprop": "Y", "parkname": "Central Park", "Location": "Central Park West and 77th Street" }, "geometry": { "type": "Point", "coordinates": [ -73.9736052, 40.7794981 ] } },
{ "type": "Feature", "properties": { "monument_id": 322, "monument_name": "Instruction", "parkprop": "N", "parkname": "unknown", "Location": "Surrogate's Court/Hall of Records, 31 Chambers Street, Reade Street elevation, beside center window in attic" }, "geometry": { "type": "Point", "coordinates": [ -74.0043655, 40.7134361 ] } },
{ "type": "Feature", "properties": { "monument_id": 323, "monument_name": "Bethesda Terrace", "parkprop": "Y", "parkname": "unknown", "Location": "North of Mall, off 72nd Street" }, "geometry": null },
{ "type": "Feature", "properties": { "monument_id": 324, "monument_name": "Caribou", "parkprop": "O", "parkname": "Central Park", "Location": "Central Park Zoo; Wildlife Conservation Center, east side of south façade" }, "geometry": { "type": "Point", "coordinates": [ -73.9655834, 40.7825547 ] } },
{ "type": "Feature", "properties": { "monument_id": 325, "monument_name": "Belvedere Tower", "parkprop": "Y", "parkname": "unknown", "Location": "unknown" }, "geometry": null },
{ "type": "Feature", "properties": { "monument_id": 326, "monument_name": "Bacchante and Infant Faun", "parkprop": "N", "parkname": "Central Park", "Location": "Metropolitan Museum of Art" }, "geometry": { "type": "Point", "coordinates": [ -73.963244, 40.7794366 ] } },
{ "type": "Feature", "properties": { "monument_id": 327, "monument_name": "Force", "parkprop": "N", "parkname": "unknown", "Location": "Surrogate's Court/Hall of Records, 31 Chambers Street, Reade Street elevation, chief cornice, fourth from left" }, "geometry": { "type": "Point", "coordinates": [ -74.0043655, 40.7134361 ] } },
{ "type": "Feature", "properties": { "monument_id": 328, "monument_name": "Navy Terrace", "parkprop": "Y", "parkname": "Central Park", "Location": "North end, fountain esplanade" }, "geometry": { "type": "Point", "coordinates": [ -73.9655834, 40.7825547 ] } },
{ "type": "Feature", "properties": { "monument_id": 329, "monument_name": "Friedel Memorial Drinking Fountain", "parkprop": "Y", "parkname": "Central Park", "Location": "Runners Gate, 90th Street and 5th Avenue" }, "geometry": { "type": "Point", "coordinates": [ -73.9585675, 40.7840819 ] } },
{ "type": "Feature", "properties": { "monument_id": 330, "monument_name": "public school # 3 tablet", "parkprop": "N", "parkname": "unknown", "Location": "unknown" }, "geometry": null },
{ "type": "Feature", "properties": { "monument_id": 331, "monument_name": "Urns -central park bandshell (2)", "parkprop": "Y", "parkname": "Central Park", "Location": "Naumberg Bandshell" }, "geometry": { "type": "Point", "coordinates": [ -73.9710283, 40.7726834 ] } },
{ "type": "Feature", "properties": { "monument_id": 332, "monument_name": "Daniel Draper", "parkprop": "Y", "parkname": "Central Park", "Location": "Belvedere Tower" }, "geometry": { "type": "Point", "coordinates": [ -73.9655834, 40.7825547 ] } },
{ "type": "Feature", "properties": { "monument_id": 333, "monument_name": "Turkeys", "parkprop": "O", "parkname": "Central Park", "Location": "Central Park Zoo; Gallery, south end of east façade" }, "geometry": { "type": "Point", "coordinates": [ -73.9655834, 40.7825547 ] } },
{ "type": "Feature", "properties": { "monument_id": 334, "monument_name": "Penguins", "parkprop": "O", "parkname": "Central Park", "Location": "Central Park Zoo; Gallery, north end of west façade" }, "geometry": { "type": "Point", "coordinates": [ -73.9655834, 40.7825547 ] } },
{ "type": "Feature", "properties": { "monument_id": 335, "monument_name": "Bethesda Fountain and Terrace", "parkprop": "Y", "parkname": "Central Park", "Location": "North of mall, west wall, east stairs" }, "geometry": { "type": "Point", "coordinates": [ -73.9655834, 40.7825547 ] } },
{ "type": "Feature", "properties": { "monument_id": 336, "monument_name": "City Employees War Memorial", "parkprop": "Y", "parkname": "Central Park", "Location": "West of north end of Mall, opposite Naumberg Bandshell" }, "geometry": { "type": "Point", "coordinates": [ -73.9655834, 40.7825547 ] } },
{ "type": "Feature", "properties": { "monument_id": 337, "monument_name": "Conservatory Garden Fountain", "parkprop": "Y", "parkname": "Central Park", "Location": "Conservatory Gardens; Fifth Avenue and 105th Street" }, "geometry": { "type": "Point", "coordinates": [ -73.9524588, 40.7936928 ] } },
{ "type": "Feature", "properties": { "monument_id": 338, "monument_name": "Jose Julian Marti", "parkprop": "Y", "parkname": "Central Park", "Location": "Central Park South at Avenue of the Americas" }, "geometry": { "type": "Point", "coordinates": [ -73.9762371, 40.765741899999988 ] } },
{ "type": "Feature", "properties": { "monument_id": 339, "monument_name": "Fitz Greene Halleck", "parkprop": "Y", "parkname": "Central Park", "Location": "East side of Mall" }, "geometry": { "type": "Point", "coordinates": [ -73.9655834, 40.7825547 ] } },
{ "type": "Feature", "properties": { "monument_id": 340, "monument_name": "Darwin", "parkprop": "O", "parkname": "Theodore Roosevelt Park", "Location": "Museum of Natural History; Southeast corner facing aisle in South Wing" }, "geometry": { "type": "Point", "coordinates": [ -73.9742272, 40.7824902 ] } },
{ "type": "Feature", "properties": { "monument_id": 341, "monument_name": "Ludwig Van Beethoven", "parkprop": "Y", "parkname": "Central Park", "Location": "NW of mall - opposite bandshell" }, "geometry": { "type": "Point", "coordinates": [ -73.9655834, 40.7825547 ] } },
{ "type": "Feature", "properties": { "monument_id": 342, "monument_name": "Egyptian Obelisk", "parkprop": "Y", "parkname": "Central Park", "Location": "East Drive at 81st Street behind Metropolitan Museum  of Art" }, "geometry": { "type": "Point", "coordinates": [ -73.963244, 40.7794366 ] } },
{ "type": "Feature", "properties": { "monument_id": 343, "monument_name": "museum of the city of new york", "parkprop": "N", "parkname": "unknown", "Location": "ROMULUS AND REMUS, ALEX HAMILT" }, "geometry": null },
{ "type": "Feature", "properties": { "monument_id": 344, "monument_name": "Wollman, Jane and Betty Skating Rink", "parkprop": "Y", "parkname": "Central Park", "Location": "South of Dairy; on wall at rink level" }, "geometry": { "type": "Point", "coordinates": [ -73.9655834, 40.7825547 ] } },
{ "type": "Feature", "properties": { "monument_id": 345, "monument_name": "Tisch Children's Zoo Gate", "parkprop": "Y", "parkname": "Central Park", "Location": "East 65th Street" }, "geometry": { "type": "Point", "coordinates": [ -73.9675799, 40.7668847 ] } },
{ "type": "Feature", "properties": { "monument_id": 346, "monument_name": "Robert Burns", "parkprop": "Y", "parkname": "Central Park", "Location": "South end of Literary Walk" }, "geometry": { "type": "Point", "coordinates": [ -73.9655834, 40.7825547 ] } },
{ "type": "Feature", "properties": { "monument_id": 347, "monument_name": "Commissioner Newbold Morris", "parkprop": "Y", "parkname": "Central Park", "Location": "Between Arsenal and Central Park Zoo; next to bench at the SW corner of building" }, "geometry": { "type": "Point", "coordinates": [ -73.9719906, 40.7677061 ] } },
{ "type": "Feature", "properties": { "monument_id": 348, "monument_name": "Senator Robert F. Wagner Memorial", "parkprop": "Y", "parkname": "unknown", "Location": "Wagner Houses, 2nd Avenue at 120th Street" }, "geometry": { "type": "Point", "coordinates": [ -73.9315047, 40.7982033 ] } },
{ "type": "Feature", "properties": { "monument_id": 349, "monument_name": "Painting", "parkprop": "N", "parkname": "unknown", "Location": "Surrogate's Court/Hall of Records, 31 Chambers Street, Reade Street elevation, chief cornice, seventh from lef" }, "geometry": { "type": "Point", "coordinates": [ -74.0043655, 40.7134361 ] } },
{ "type": "Feature", "properties": { "monument_id": 350, "monument_name": "Cactus Couple", "parkprop": "Y", "parkname": "Central Park", "Location": "Arsenal South Roof, center of roof beside planter banquette" }, "geometry": { "type": "Point", "coordinates": [ -73.9655834, 40.7825547 ] } },
{ "type": "Feature", "properties": { "monument_id": 351, "monument_name": "307th Infantry Memorial Grove", "parkprop": "Y", "parkname": "Central Park", "Location": "East of Mall" }, "geometry": { "type": "Point", "coordinates": [ -73.9655834, 40.7825547 ] } },
{ "type": "Feature", "properties": { "monument_id": 352, "monument_name": "Wolf and Lynxes", "parkprop": "O", "parkname": "Central Park", "Location": "Central Park Zoo; Willard T.C. Johnson Penguin Building, northeast façade" }, "geometry": { "type": "Point", "coordinates": [ -73.9719906, 40.7677061 ] } },
{ "type": "Feature", "properties": { "monument_id": 353, "monument_name": "Jeanne E. Kerbs", "parkprop": "Y", "parkname": "Central Park", "Location": "Conservatory Lake Boathouse" }, "geometry": { "type": "Point", "coordinates": [ 144.959470900000014, -37.82242 ] } },
{ "type": "Feature", "properties": { "monument_id": 354, "monument_name": "John Jay", "parkprop": "N", "parkname": "unknown", "Location": "CITY HALL; council chamber" }, "geometry": null },
{ "type": "Feature", "properties": { "monument_id": 355, "monument_name": "mohammed", "parkprop": "N", "parkname": "unknown", "Location": "APPELLATE COURT; madison ave and 25th st." }, "geometry": { "type": "Point", "coordinates": [ -90.1366416, 38.7074271 ] } },
{ "type": "Feature", "properties": { "monument_id": 356, "monument_name": "Board of Estimate", "parkprop": "N", "parkname": "unknown", "Location": "MUNICIPAL BUILDING; Chambers and Centre Streets" }, "geometry": null },
{ "type": "Feature", "properties": { "monument_id": 357, "monument_name": "solon", "parkprop": "N", "parkname": "unknown", "Location": "APPELATE COURT BUILDING; madison Avenue at 25th st, 25th st. fac." }, "geometry": { "type": "Point", "coordinates": [ -90.1366416, 38.7074271 ] } },
{ "type": "Feature", "properties": { "monument_id": 358, "monument_name": "Millennial Clock", "parkprop": "N", "parkname": "unknown", "Location": "Millennial Park, DOT property off southern tip of City Hall Park" }, "geometry": null },
{ "type": "Feature", "properties": { "monument_id": 359, "monument_name": "History", "parkprop": "O", "parkname": "Bryant Park", "Location": "New York Public Library; 42nd St. and 5th Avenue" }, "geometry": { "type": "Point", "coordinates": [ -73.9822534, 40.753182300000013 ] } },
{ "type": "Feature", "properties": { "monument_id": 360, "monument_name": "Chemistry", "parkprop": "N", "parkname": "unknown", "Location": "Surrogate's Court/Hall of Records, 31 Chambers Street, Centre Street façade, chief cornice, first from left" }, "geometry": { "type": "Point", "coordinates": [ -74.0043655, 40.7134361 ] } },
{ "type": "Feature", "properties": { "monument_id": 361, "monument_name": "Keeper of the Rolls", "parkprop": "N", "parkname": "unknown", "Location": "Surrogate's Court/Hall of Records, 31 Chambers Street, Centre Street façade, beside center window in attic" }, "geometry": { "type": "Point", "coordinates": [ -74.0043655, 40.7134361 ] } },
{ "type": "Feature", "properties": { "monument_id": 362, "monument_name": "Five in One", "parkprop": "N", "parkname": "unknown", "Location": "unknown" }, "geometry": null },
{ "type": "Feature", "properties": { "monument_id": 363, "monument_name": "Autumn", "parkprop": "N", "parkname": "unknown", "Location": "APPELLATE COURT BUILDING; Madison Avenue at 25th St., madison avenue façade" }, "geometry": { "type": "Point", "coordinates": [ -90.1366416, 38.7074271 ] } },
{ "type": "Feature", "properties": { "monument_id": 364, "monument_name": "Columbia University entrance pylons", "parkprop": "N", "parkname": "unknown", "Location": "Broadway at 116th St., Amsterdam and 116th" }, "geometry": { "type": "Point", "coordinates": [ 4.9041389, 52.3675734 ] } },
{ "type": "Feature", "properties": { "monument_id": 365, "monument_name": "science", "parkprop": "N", "parkname": "unknown", "Location": "COLUMBIA UNIVERSITY; broadway at 116th st." }, "geometry": { "type": "Point", "coordinates": [ -73.9625727, 40.8075355 ] } },
{ "type": "Feature", "properties": { "monument_id": 366, "monument_name": "Stuyvesant High School", "parkprop": "N", "parkname": "unknown", "Location": "STUYVESANT HIGH SCHOOL; 15th -16th St. west of 1st Avenue" }, "geometry": { "type": "Point", "coordinates": [ -74.0138422, 40.7178149 ] } },